STATE ID,DAM NAME,OTHER  NAME,NID,NO STRUCTURES,OTHER STRUCT ID,LONGITUDE,LATITUDE,COUNTY,CITY/TOWN,RIVER/STREAM,YR COMPLETED,PURPOSES,DRINKING WATER,DAM TYPE,LENGTH (FT),HT (FT) EST,HT (FT),STRUCT HT(FT),HYD HT(FT),SPILL W(FT),SPILL HT(FT),SPILL MAX D(FT),NORM STOR(AC-FT),MAX STOR(AC-FT),NORM SURF AREA(AC),DRN AREA(SQ MI),SW MAX (CFS),OUTMAX(CFS),FRESHET(CFS),HIST HAZARD,HIST SOURCE,HAZARD,HAZARD SOURCE,COMMENT,REGULATED,ACTIVE,PERMIT AUTHORITY,INSP AUTHORITY,ENFORCE AUTHORITY,SIZE,DS JURISDICTION,STATE REGULATORY AGENCY,FED REGULATORY AGENCY,YR MODIFIED,SPILL TYPE,OUTLET GATES,NEAREST CITY/TOWN,DIST TO CITY/TOWN,NON-FED ON FED PROP,NRCS
001,WALLUM LAKE,,RI00301,,,-71.76204,42.00071,PROVIDENCE,BURRILLVILLE,CLEAR RIVER,1866,R,,"MASONRY,GRAVITY,EARTH",80,10,7,10,8,3,7,1,9000,10000,322,2,80,38,300,LOW,,SIGNIFICANT,GZA 2007,,Y,Y,Y,Y,Y,MEDIUM,Y,DS,,,,,BURRILLVILLE,4,N,
002,WALLUM LAKE POOL,,RI04563,,,-71.75893,41.9985,PROVIDENCE,BURRILLVILLE,CLEAR RIVER,,O,,,0,11.5,11,0,,,,,0,0,0,2,0,,300,LOW,,LOW,RIDEM 2006,,Y,Y,N,Y,N,,Y,W,,,,,,,N,
003,WILSON RESERVOIR,,RI00302,,,-71.7223282,41.96615218,PROVIDENCE,BURRILLVILLE,CLEAR RIVER,1866,R,,"GRAVITY,EARTH",480,,21,19,17,25,19,4.5,590,840,114,13,395,348,933,LOW,,HIGH,GZA 2004,,Y,Y,Y,Y,Y,MEDIUM,Y,DS,,,,,BURRILLVILLE,1,N,
004,PRENDERGAST MILL POND,WHITE MILL PARK,RI04004,,,-71.71442412,41.96520993,PROVIDENCE,BURRILLVILLE,CLEAR RIVER,1928,,,"CONCRETE,EARTH",110,11,14,12,10,90,10,2.5,19,28,4,13,1174,1008,2000,LOW,,LOW,RIDEM 2006,,Y,Y,N,Y,N,SMALL,Y,W,,,,,BURRILLVILLE,1,N,
005,GREEN SHODDY MILL POND,,RI04005,,,-71.70832827,41.96719738,PROVIDENCE,BURRILLVILLE,CLEAR RIVER,1883,,,,160,11,14.5,15,9,71,11,5.6,5,8,1,13,1363,30,1010,LOW,,LOW,RIDEM 2006,,Y,Y,N,Y,N,SMALL,Y,W,,,,,BURRILLVILLE,0.5,N,
006,PREMIER MILL POND,,RI04006,,,-71.70507051,41.96719364,PROVIDENCE,BURRILLVILLE,CLEAR RIVER,1883,,,"MASONRY,EARTH",450,11.5,10,11,8,102,8.5,2.2,9,10,2,14,1265,1183,1029,LOW,,LOW,RIDEM 2006,,Y,Y,N,Y,N,SMALL,Y,W,,,,,BURRILLVILLE,0.5,N,
008,HARRISVILLE POND,,RI00303,,,-71.67486571,41.96574024,PROVIDENCE,BURRILLVILLE,PASCOAG RIVER,1854,R,,"ROCKFILL,GRAVITY,EARTH",550,20.5,19,22,17,132,17,4.5,56,100,18,43,3200,126,2830,LOW,,HIGH,GZA 2007,,Y,Y,Y,Y,Y,SMALL,Y,DS,,,,,BURRILLVILLE,0,N,
010,MAPLEVILLE POND,,RI04008,,,-71.64486699,41.94935606,PROVIDENCE,BURRILLVILLE,CHEPACHET RIVER,1883,O,,"EARTH,MASONRY",360,8,9,9,7,72,6.5,2.3,12,15,3,21,1157,168,1428,LOW,,LOW,GZA MAP 2008 & RIDEM 7/23/2012 DEED RESTRICT(HIGH),HIGH HAZ BEFORE DEED RESTRICT,Y,Y,N,Y,N,SMALL,Y,W,,,,,BURRILLVILLE,0.5,N,
011,AMERICAN MILL POND,,RI04009,,,-71.70204927,41.96039962,PROVIDENCE,BURRILLVILLE,PASCOAG RIVER,1883,,,"STONE,EARTH",190,9.5,14,14,12,29,12,2,6,8,1,9,292,113,702,LOW,,LOW,RIDEM 2006,,Y,Y,N,Y,N,SMALL,Y,W,,,,,BURRILLVILLE,0.5,N,
014,AKELA POND,,RI04010,,,-71.70196,41.95665,PROVIDENCE,BURRILLVILLE,PASCOAG RIVER,1883,,,"STONE,EARTH",50,10,10,10,8,36,8,1.9,5,6,0,9,329,0,713,LOW,,LOW,RIDEM 2006,,Y,Y,N,Y,N,SMALL,Y,W,,,,,BURRILLVILLE,1,N,
015,UNION MILL POND,PASCOAG RES. LOWER,RI04011,,,-71.70307161,41.95515439,PROVIDENCE,BURRILLVILLE,PASCOAG RIVER,1883,,,"EARTH,MASONRY",290,,7.3,,5,26,5.5,2.6,45,70,12,9,425,290,705,SIGNIFICANT,,SIGNIFICANT,GZA 2004,,Y,Y,Y,Y,Y,SMALL,Y,DS,,,,,BURRILLVILLE,0,N,
016,PASCOAG RESERVOIR UPPER,ECHO LAKE,RI00304,2,D01,-71.70506286,41.95061489,PROVIDENCE,BURRILLVILLE,BRANDY BROOK,1860,R,,"GRAVITY,EARTH",475,,27,27,27,22,19,5,5000,9000,500,8.42,1020,203,685,HIGH,,HIGH,"ACOE 1979,GZA UMAP 2008 (MAIN); GZA MAP 2008 (D01)","D01 (-71.708, 41.952) HIGH HAZ APPEALED & DENIED",Y,Y,Y,Y,Y,MEDIUM,Y,DS,,,,,BURRILLVILLE,1,N,
017,BURLINGAME RESERVOIR LOWER,,RI04385,,,-71.74121861,41.91563034,PROVIDENCE,GLOCESTER,BRANDY BROOK,,FR,,EARTH,250,,3,3,2,25,2.5,0.5,2,3,1,2,306,0,275,LOW,,LOW,RIDEM 2006,,N,Y,N,N,N,SMALL,N,W,,,,,GLOCESTER,1,N,
018,BURLINGAME RESERVOIR UPPER,,RI01306,,,-71.74237821,41.91408918,PROVIDENCE,GLOCESTER,BRANDY BROOK,1885,FR,,"EARTH,ROCKFILL,CONCRETE",355,,10.4,12,10,29,7,1.5,238,340,69,2,159,112,640,SIGNIFICANT,ACOE-1981,HIGH,"ACOE 1981, RIDEM DEF & GZA UMAP 2008",,Y,Y,Y,Y,Y,SMALL,Y,DS,,,,,GLOCESTER,0,N,
019,SWEET'S MILL POND,,RI04154,,,-71.74698621,41.90110582,PROVIDENCE,GLOCESTER,BRANDY BROOK,,FR,,"EARTH,ROCKFILL",50,,,,,,,,,,,,,,,LOW,,LOW,RIDEM 2006,,UNK,Y,N,N,N,SMALL,,W,,,,,GLOCESTER,0,N,
021,CHERRY VALLEY POND,,RI01307,,,-71.67400355,41.87384416,PROVIDENCE,GLOCESTER,CHEPACHET RIVER,1958,R,,"EARTH,ROCKFILL,CONCRETE",300,7,8,9,8,5,6,1.5,77,86,14,0,32,0,40,LOW,,SIGNIFICANT,GZA MAP 2008,,Y,Y,Y,Y,Y,SMALL,Y,DS,,,,,GLOCESTER,3,N,
022,KEECH POND,,RI01301,,,-71.68824006,41.88439945,PROVIDENCE,GLOCESTER,CHEPACHET RIVER,1952,R,,"GRAVITY,EARTH",800,,15,15,12,28,9,3.5,768,870,128,6,435,17,570,LOW,,HIGH,GZA 2004,,Y,Y,Y,Y,Y,SMALL,Y,DS,,,,,GLOCESTER,2,N,
023,SMITH + SAYLES RESERVOIR,SAND,RI01302,,,-71.67700962,41.9022369,PROVIDENCE,GLOCESTER,CHEPACHET RIVER,1865,R,,"MASONRY,GRAVITY,EARTH",980,,15,16,9,35,8,6,875,1450,175,8,785,112,642,LOW,,SIGNIFICANT,GZA 2004,,Y,Y,Y,Y,Y,MEDIUM,Y,DS,,,,,GLOCESTER,1,N,
024,SHINGLE MILL POND UPPER,,RI04155,,,-71.68565368,41.90237426,PROVIDENCE,GLOCESTER,STINGO BROOK-TRIB,,R,,"EARTH,MASONRY",150,9,8,8,6,10,6,2,15,32,8,2,85,,238,LOW,,LOW,RIDEM 2006,,Y,Y,N,Y,N,SMALL,Y,W,,,,,GLOCESTER,0,N,
025,MOWRY POND,,RI04156,,,-71.67104339,41.9134331,PROVIDENCE,GLOCESTER,CHEPACHET RIVER,1883,,,"EARTH,MASONRY",180,7.5,8.5,8,5,59,5,3.3,24,42,6,12,1082,157,881,LOW,,LOW,GZA MAP 2008,,Y,Y,N,Y,N,SMALL,Y,W,,,,,GLOCESTER,0,N,
026,VALENTINE MILL POND,,RI04157,,,-71.66915888,41.91421507,PROVIDENCE,GLOCESTER,CHEPACHET RIVER,,,,MASONRY,,10,,,,,,,,,,,,,,LOW,,LOW,RIDEM 2006,,Y,Y,N,N,N,,,W,,,,,GLOCESTER,0,N,
027,SUCKER POND,,RI00305,,,-71.67079928,41.93589784,PROVIDENCE,BURRILLVILLE,SUCKER BROOK,1883,,,"GRAVITY,EARTH",220,10,13,14,12,5,12,1,278,330,59,1,117,33,102,LOW,,SIGNIFICANT,GZA 2007,,Y,Y,Y,Y,Y,SMALL,Y,DS,,,,,BURRILLVILLE,3,N,
028,STEERE'S SAWMILL POND,,RI04158,,,-71.66367342,41.92425536,PROVIDENCE,GLOCESTER,SUCKER BROOK,1822,,,"EARTH,ROCKFILL",50,13.5,12,12,8,15,8,2,30,40,9,3,150,,336,LOW,,LOW,RIDEM 2006,,Y,Y,N,Y,N,SMALL,Y,W,,,,,GLOCESTER,0,N,
029,MOWER POND,SPRING GROVE POND,RI01303,,,-71.65351864,41.91373065,PROVIDENCE,GLOCESTER,SPRING GROVE BROOK,1885,R,,"GRAVITY,EARTH",300,,14,15,15,1,10,2,234,265,22,1,63,63,130,LOW,,SIGNIFICANT,GZA 2004,,Y,Y,Y,Y,Y,SMALL,Y,DS,,,,,GLOCESTER,2,N,
030,SPRING GROVE POND,,RI04159,,,-71.65464019,41.91461561,PROVIDENCE,GLOCESTER,SUCKER BROOK,,R,,EARTH,,,,,,,,,,,,,,,,LOW,,LOW,RIDEM 2006,,UNK,Y,N,N,N,SMALL,,W,,,,,GLOCESTER,0,N,
031,OLD MILL POND,,RI04160,,,-71.65567019,41.91447829,PROVIDENCE,GLOCESTER,SPRING GROVE BROOK,,,,"EARTH,CONCRETE",35,12,4.7,7,3,1.8,2.8,1.5,3,4,1,1,50,,150,LOW,,LOW,RIDEM 2006,,Y,Y,N,N,N,SMALL,N,W,,,,,GLOCESTER,0,N,
032,SNAKESKIN POND,,RI04161,,,-71.65752414,41.92057423,PROVIDENCE,GLOCESTER,SPRING GROVE BROOK,,,,"EARTH,MASONRY",100,9.5,7.7,7,4,9,4.5,3,22,35,6,2,184,184,246,LOW,,SIGNIFICANT,GZA MAP 2008,,Y,Y,Y,Y,Y,SMALL,Y,DS,,,,,GLOCESTER,0,N,
033,STEERE'S POND LOWER,,RI04162,,,-71.65909578,41.92239377,PROVIDENCE,GLOCESTER,CHEPACHET RIVER,,,,"EARTH,MASONRY",180,8,9.2,9,6,58,6.5,3,12,24,4,16,1074,460,1150,LOW,,LOW,RIDEM 2006,,Y,Y,N,Y,N,SMALL,Y,W,,,,,GLOCESTER,0,N,
035,GILLERAN POND,,RI04013,,,-71.6456604,41.94600681,PROVIDENCE,BURRILLVILLE,CHEPACHET RIVER,1883,,,"EARTH,MASONRY",255,7,11.6,12,8,79,8,4,16,20,4,20,2298,0,1353,LOW,,LOW,GZA 2007 & DEM 01/19/2012,,Y,Y,N,Y,N,SMALL,Y,W,,,,,BURRILLVILLE,0,N,
036,TROUT POND,,RI04014,,,-71.64221955,41.95095065,PROVIDENCE,BURRILLVILLE,TROUT POND BROOK,1883,FP,,"EARTH,MASONRY",300,5,8,8,5,10,5,2,10,15,4,0,50,5,90,LOW,,LOW,RIDEM 2006,,Y,Y,N,Y,N,SMALL,Y,W,,,,,BURRILLVILLE,1,N,
037,OAKLAND POND,,RI00312,,,-71.64189152,41.95983507,PROVIDENCE,BURRILLVILLE,BRANCH RIVER,1850,,,"GRAVITY,EARTH",330,8,11,12,7,165,7,3.7,114,196,5,68,4280,619,3115,LOW,,LOW,RIDEM 2006,,Y,Y,N,Y,N,SMALL,Y,W,,,,,BURRILLVILLE,2,N,
038,GLENDALE,,RI04564,,,-71.63161,41.975,PROVIDENCE,BURRILLVILLE,BRANCH RIVER,,,,,0,,,0,,,,,0,0,0,72,0,,4445,LOW,,LOW,RIDEM 2006,,UNK,Y,N,N,N,,,W,,,,,,,N,
039,SPRING LAKE,HERRING POND,RI00306,,,-71.66610715,41.97824479,PROVIDENCE,BURRILLVILLE,HERRING BROOK,1885,R,,"GRAVITY,EARTH",55,12,8,9,7,4,7,3,690,840,82,1,56,56,130,LOW,,SIGNIFICANT,GZA 2007,,Y,Y,Y,Y,Y,SMALL,Y,DS,,,,,BURRILLVILLE,2,N,
040,MOHEGAN,,RI04561,,,-71.62396,41.98491,PROVIDENCE,BURRILLVILLE,BRANCH RIVER,,,,,0,,,0,,,,,0,0,0,0,0,,,LOW,,LOW,RIDEM 2006,,UNK,Y,N,N,N,,,W,,,,,,,N,
041,NASONVILLE POND,,RI04015,,,-71.61781306,41.98176953,PROVIDENCE,BURRILLVILLE,BRANCH RIVER,1883,,,,140,14.5,14,,,96,9.5,4.5,20,35,4,75,3168,550,4656,LOW,,LOW,GZA 2007,,Y,Y,N,Y,N,SMALL,Y,W,,,,,NORTH SMITHFIELD,3,N,
042,ROUND TOP POND,,RI00307,,,-71.69992828,42.0019493,PROVIDENCE,BURRILLVILLE,ROUNDTOP BROOK,1905,FR,,"GRAVITY,EARTH",140,14,10,14,9,58,9,4,50,60,10,9,2076,0,745,LOW,,LOW,RIDEM 2006,,Y,Y,N,Y,N,SMALL,Y,W,,,,,BURRILLVILLE,3,N,
043,SLATERSVILLE RESERVOIR UPPER,,RI02501,,,-71.59480286,41.99433132,PROVIDENCE,NORTH SMITHFIELD,BRANCH RIVER,1886,,,"MASONRY,GRAVITY,EARTH",256,,27,36,27,170,27,8,1970,3640,147,89,12118,1170,5796,SIGNIFICANT,ACOE-1979,HIGH,"ACOE 1979, RIDEM DEF & GZA UMAP 2008",,Y,Y,Y,Y,Y,MEDIUM,N,DS,FERC LICENSE TERMINATED 05-2017,,,,NORTH SMITHFIELD,1,N,
044,SLATERSVILLE UPPER TRENCH RETURN NO. 1,,RI04565,,,-71.59592,41.99467,PROVIDENCE,NORTH SMITHFIELD,BRANCH RIVER,,,,,0,,,0,,,,,0,0,0,0,0,,,LOW,,LOW,RIDEM 2006,,UNK,Y,N,N,N,,,W,,,,,,,N,
045,SLATERSVILLE UPPER INTERMEDIATE,,RI04566,,,-71.5946,41.99454,PROVIDENCE,NORTH SMITHFIELD,BRANCH RIVER,,,,,0,,,0,,,,,0,0,0,0,0,,,LOW,,LOW,RIDEM 2006,,Y,Y,N,N,N,,N,W,FERC LICENSE TERMINATED 05-2017,,,,,,N,
046,SLATERSVILLE RESERVOIR MIDDLE,,RI02502,,,-71.58184813,41.99769971,PROVIDENCE,NORTH SMITHFIELD,BRANCH RIVER,1886,,,"MASONRY,OTHER,EARTH",310,,26,15,15,150,15,5.2,740,1330,102,94,7500,0,6028,SIGNIFICANT,ACOE-1979,HIGH,"ACOE 1979, RIDEM DEF & GZA UMAP 2008",,Y,Y,Y,Y,Y,MEDIUM,Y,DS,,,,,NORTH SMITHFIELD,1,N,
047,SLATERSVILLE RESERVOIR LOWER,,RI02503,,,-71.58051304,41.99895096,PROVIDENCE,NORTH SMITHFIELD,BRANCH RIVER,1886,,,"ROCKFILL,MASONRY,EARTH",320,,15,18,14,150,13,5.7,208,328,40,94,8550,1000,6028,LOW,ACOE-1981,SIGNIFICANT,GZA 2004,,Y,Y,Y,Y,Y,SMALL,Y,DS,,,,,NORTH SMITHFIELD,1,N,
048,FORESTDALE POND,,RI02504,,,-71.56406397,41.99607086,PROVIDENCE,NORTH SMITHFIELD,BRANCH RIVER,1883,,,"MASONRY,ROCKFILL,GRAVITY",109,,19.5,19,14,92,14,5,160,280,17,96,5000,31.7,7600,SIGNIFICANT,ACOE-1980,HIGH,"ACOE 1980, RIDEM DEF & GZA UMAP 2008",,Y,Y,Y,Y,N,SMALL,Y,DS,,,,,NORTH SMITHFIELD,0,N,
049,TARKILN MILL POND,,RI04016,,,-71.60013577,41.96570205,PROVIDENCE,BURRILLVILLE,TARKILN BROOK,1882,R,,,150,9,11,,,79,6,4.3,15,35,5,9,2923,,752,LOW,,LOW,GZA MAP 2008 & RIDEM 2008 (RIDEM 2007-SIG),,Y,Y,N,Y,N,SMALL,Y,W,,,,,NORTH SMITHFIELD,2,N,
050,TARKILN POND,,RI00308,,,-71.59819799,41.96463779,PROVIDENCE,BURRILLVILLE,TARKILN BROOK,1886,R,,"GRAVITY,EARTH",140,8,10,10,9,78,8,1.5,65,85,18,9,915,0,745,LOW,,LOW,GZA MAP 2008 & RIDEM 2008 (RIDEM 2007-SIG),,Y,Y,N,Y,N,SMALL,Y,W,,,,,NORTHSMITHFIELD,3,N,
051,NICHOLS POND,,RI00309,,,-71.599678,41.95553211,PROVIDENCE,BURRILLVILLE,TARKILN BROOK,1885,R,,"GRAVITY,EARTH",110,10,9,11,8,47,8,2.5,77,130,24,7,560,44,600,LOW,,SIGNIFICANT,GZA MAP 2008,,Y,Y,Y,Y,Y,SMALL,Y,DS,,,,,NORTH SMITHFIELD,3,N,
052,MOWRY-PAINE POND,CAMP COOKIE,RI04163,,,-71.61611172,41.9290581,PROVIDENCE,GLOCESTER,PAINE BROOK,,R,,"EARTH,MASONRY",250,12.5,11.5,12,8,20,8.5,4.8,20,42,6,2,2612,,354,LOW,,LOW,RIDEM 2006,,Y,Y,N,Y,N,SMALL,Y,W,,,,,GLOCESTER,0,N,
053,O'HARA POND,HARTS,RI04259,,,-71.57889559,41.97940061,PROVIDENCE,NORTH SMITHFIELD,TROUT BROOK,1830,,,"EARTH,MASONRY",170,8,7.7,8,6,6,5.7,2,8,10,2,1,48,60,102,LOW,,LOW,RIDEM 2006,,Y,Y,N,Y,N,SMALL,Y,W,,,,,NORTH SMITHFIELD,0,N,
054,LAKE BEL AIR,,RI04260,,,-71.5827331,41.95551298,PROVIDENCE,BURRILLVILLE,RANKIN BROOK,,R,,"EARTH,MASONRY",180,6,7,7,6,2.5,6,2,20,23,7,1,15,0,140,LOW,,LOW,RIDEM 2006,,Y,Y,N,Y,N,SMALL,Y,W,,,,,NORTH SMITHFIELD,0,N,
055,PRATT POND,,RI04229,,,-71.57676698,42.01029966,PROVIDENCE,NORTH SMITHFIELD,DAWLEY BROOK,,R,,"EARTH,MASONRY",156,2,8,8,5,2,5,0.5,15,18,6,0,15,0,76,LOW,,LOW,RIDEM 2006,,Y,Y,N,Y,N,SMALL,Y,W,,,,,NORTH SMITHFIELD,0,N,
056,WOONSOCKET FALLS,THUNDERMIST,RI03902,,,-71.51796727,41.9994888,PROVIDENCE,WOONSOCKET,BLACKSTONE RIVER,1960,CH,,CONCRETE,268,,17,40,10,200,10,10,400,500,30,369,18900,0,16240,SIGNIFICANT,,SIGNIFICANT,GZA 2004,,N,Y,N,N,N,SMALL,N,W,ACOE/FERC,,,,WOONSOCKET,0,N,
059,MANVILLE,,RI00809,,,-71.4706955,41.9714851,PROVIDENCE,CUMBERLAND / LINCOLN,BLACKSTONE RIVER,1860,,,MASONRY,250,,22,22,19,160,19,3,254,349,58,408,14000,0,21220,SIGNIFICANT,,LOW,GZA 2004,,Y,Y,N,Y,N,SMALL,Y,W,,,,,CUMBERLAND,2,N,
060,ALBION,,RI00808,,,-71.45355221,41.95420839,PROVIDENCE,CUMBERLAND / LINCOLN,BLACKSTONE RIVER,1850,,,MASONRY,400,,18,21,12,300,12,6,235,347,18,411,138000,0,21360,SIGNIFICANT,,LOW,GZA 2004,,Y,Y,N,Y,N,SMALL,Y,W,,,,,LINCOLN,0,N,
061,ASHTON,,RI00807,,,-71.43589018,41.9403915,PROVIDENCE,CUMBERLAND / LINCOLN,BLACKSTONE RIVER,1885,,,"MASONRY,EARTH,ARCH",318,,18,20,10,250,10,8,112,200,35,421,19800,2000,21870,LOW,,LOW,GZA 2004,,Y,Y,N,Y,N,SMALL,Y,W,,,,,CUMBERLAND,0,N,
062,PRATT,,RI01705,,,-71.40889739,41.91358566,PROVIDENCE,CUMBERLAND / LINCOLN,BLACKSTONE RIVER,,,,,0,,12,20,0,,,,236,393,0,0,0,,,SIGNIFICANT,,LOW,RIDEM 2006,,Y,Y,N,Y,N,,Y,W,,,,,CUMBERLAND,,N,
063,VALLEY FALLS POND,SAMOSET,RI00401,,,-71.38978575,41.89944073,PROVIDENCE,CENTRAL FALLS / CUMBERLAND,BLACKSTONE RIVER,1853,,,"GRAVITY,EARTH",220,,22,24,14,186,14,9.4,480,828,60,445,19100,0,19126,SIGNIFICANT,,LOW,GZA 2004,,Y,Y,N,N,N,SMALL,N,W,FERC,,,,CENTRAL FALLS,0,N,
064,CENTRAL FALLS,PANTEX MILL POND,RI00402,,,-71.38019566,41.88773729,PROVIDENCE,CENTRAL FALLS / PAWTUCKET,BLACKSTONE RIVER,1850,H,,"ROCKFILL,GRAVITY,EARTH",220,,14,18,11,210,11,8,98,160,20,473,17300,0,20352,SIGNIFICANT,,LOW,GZA 2004,,Y,Y,N,N,N,SMALL,N,W,FERC,,,,CENTRAL FALLS,0,N,
065,PAWTUCKET UPPER,SLATER MILL POND,RI04270,,,-71.38220974,41.87714388,PROVIDENCE,PAWTUCKET,BLACKSTONE RIVER,1800,,,"CONCRETE,MASONRY",200,,15,15,8,171,7.3,7,45,60,11,474,20700,0,20374,SIGNIFICANT,,LOW,GZA 2004,,Y,Y,N,Y,N,SMALL,Y,W,,,,,PAWTUCKET,0,N,
066,PAWTUCKET LOWER,,RI04271,,,-71.38309473,41.87659834,PROVIDENCE,PAWTUCKET,BLACKSTONE RIVER,1896,H,,MASONRY,200,,17,20,8,180,8,9,12,20,2,474,18000,0,20378,LOW,,LOW,RIDEM 2006,,Y,Y,N,N,N,SMALL,N,CRMC,FERC,,,,PAWTUCKET,0,N,
067,TODD'S POND,,RI04261,,,-71.53786468,41.96775816,PROVIDENCE,NORTH SMITHFIELD,CHERRY BROOK,,,,"EARTH,MASONRY",285,9,10,10,6,24,5.5,1.5,41,75,15,1,143,0,124,LOW,,SIGNIFICANT,GZA 2007,,Y,Y,Y,Y,Y,SMALL,Y,DS,,,,,NORTH SMITHFIELD,0,N,
068,WOONSOCKET RESERVOIR # 3,,RI02505,,,-71.49140928,41.9428978,PROVIDENCE,NORTH SMITHFIELD / SMITHFIELD,CROOKFALL BROOK,1895,S,Y,"GRAVITY,EARTH",1500,,27,28,28,25,24,3,3950,4740,227,3,433,117,330,HIGH,ACOE-1979,HIGH,GZA 2004,,Y,Y,Y,Y,Y,MEDIUM,Y,DS,,,,,NORTH SMITHFIELD,0,N,
069,WOONSOCKET RESERVOIR # 2,,RI04567,,,-71.48701,41.97042,PROVIDENCE,WOONSOCKET,CROOKFALL BROOK,,S,,,0,,,0,,,,,0,0,0,0,0,,,LOW,,LOW,RIDEM 2006,,UNK,Y,N,N,N,,,W,,,,,,,N,
070,WOONSOCKET RESERVOIR # 1,,RI04262,,,-71.48897549,41.97651289,PROVIDENCE,LINCOLN / NORTH SMITHFIELD,CROOKFALL BROOK,1883,S,Y,"EARTH,CONCRETE,MASONRY",240,,41,47,38,45,38,6,105,145,10,8,2200,24,880,SIGNIFICANT,ASH-1981,HIGH,GZA 2004,,Y,Y,Y,Y,Y,MEDIUM,Y,DS,,,,,NORTH SMITHFIELD,0,N,
071,JENCKESVILLE POND LOWER,,RI04377,,,-71.50058744,42.01227187,PROVIDENCE,WOONSOCKET,PETERS RIVER,1905,,,"CONCRETE,EARTH",105,13,9,12,7,95,7,1,3,4,1,11,930,,832,LOW,,LOW,RIDEM 2006,,Y,Y,N,Y,N,SMALL,Y,W,,,,,WOONSOCKET,0,N,
073,HARRIS POND,,RI03901,,,-71.50681303,42.01641079,PROVIDENCE,WOONSOCKET,MILL RIVER,1969,S,Y,"EARTH,GRAVITY,CONCRETE",1018,,38,40,40,150,28,9,1050,2850,109,32,8500,145,7685,HIGH,ACOE-1979,HIGH,ACOE 1979 & GZA UMAP 2008,,Y,Y,Y,Y,Y,MEDIUM,Y,DS,,,,,WOONSOCKET,0,N,
074,MISCOE LAKE,GRANTS MILL POND,RI00801,,,-71.41711422,42.00765227,PROVIDENCE,CUMBERLAND,MISCOE BROOK,1937,,,"ROCKFILL,EARTH",75,,12,14,12,10,12,1.6,226,244,49,3,70,0,1464,LOW,,HIGH,GZA MAP 2008,,Y,Y,Y,Y,Y,SMALL,Y,DS,,,,,CUMBERLAND,2,N,
076,KER-ANNA POND,CAMP KER-ANNA POND,RI04099,,,-71.39537046,42.00675964,PROVIDENCE,CUMBERLAND,BURNT SWAMP BROOK,1893,R,,"EARTH,CONCRETE",140,5.5,10,10,5,9,7,1,18,24,6,4,30,,511,LOW,,LOW,RIDEM 2006,,Y,Y,N,Y,N,SMALL,Y,W,,,,,CUMBERLAND,0,N,
077,DIAMOND HILL RESERVOIR,PAWTUCKET UPPER RESERVOIR,RI00802,3,,-71.39688877,41.98958971,PROVIDENCE,CUMBERLAND,BURNT SWAMP BROOK,1971,S,Y,"EARTH,GRAVITY,CONCRETE",2000,,76,80,71,74,59,12,11000,15680,390,8,3100,280,4680,HIGH,ACOE-1978,HIGH,ACOE 1978 & GZA MAP 2008,,Y,Y,Y,Y,Y,MEDIUM,Y,DS,,,,,CUMBERLAND,1,N,
078,PAWTUCKET RESERVOIR,ARNOLD MILLS RESERVOIR,RI00803,,,-71.39056392,41.98137666,PROVIDENCE,CUMBERLAND,ABBOTT RUN,1928,S,Y,"EARTH,GRAVITY,CONCRETE",2900,,33,33,33,151,29,6.5,5125,5300,255,18,6700,170,1742,HIGH,ACOE-1978,HIGH,GZA 2004,,Y,Y,Y,Y,Y,MEDIUM,Y,DS,,,,,CUMBERLAND,2,N,
079,RAWSON POND,,RI00804,,,-71.38718413,41.96382906,PROVIDENCE,CUMBERLAND,ABBOTT RUN,1885,R,,"MASONRY,GRAVITY,EARTH",200,8,9,8,6,75,8,3.5,128,154,33,19,1720,130,1785,LOW,,SIGNIFICANT,GZA MAP 2008,,Y,Y,Y,Y,Y,SMALL,Y,DS,,,,,CUMBERLAND,1,N,
080,HOWARD POND,,RI04094,,,-71.38750456,41.95567703,PROVIDENCE,CUMBERLAND,ABBOTT RUN,1883,,,,90,3.5,4,,,75,3,1,40,60,17,20,260,,1795,LOW,,LOW,RIDEM 2006,,Y,Y,N,Y,N,SMALL,Y,W,,,,,CUMBERLAND,0,N,
081,ROBIN HOLLOW POND,,RI00805,,,-71.38421628,41.91420746,PROVIDENCE,CUMBERLAND,ABBOTT RUN,1937,S,Y,"EARTH,MASONRY",200,,13,15,13,58,9,3.9,208,240,37,27,1680,265,1896,LOW,,SIGNIFICANT,GZA MAP 2008,,Y,Y,Y,Y,Y,SMALL,Y,DS,,,,,CENTRAL FALLS,1,N,
082,HAPPY HOLLOW POND,,RI00806,,,-71.38552854,41.90099339,PROVIDENCE,CUMBERLAND,ABBOTT RUN,1885,S,Y,"MASONRY,EARTH",130,,15,19,15,68,12,4,220,360,20,28,2000,0,1291,SIGNIFICANT,,SIGNIFICANT,GZA 2004,,Y,Y,Y,Y,Y,SMALL,Y,DS,,,,,CENTRAL FALLS,1,N,
083,ROPEWALK POND,,RI04036,,,-71.55519102,41.66967774,KENT,COVENTRY,TIOGUE RIVER-TRIB,,R,,EARTH,125,6,8,8,4,8,4,1,8,10,2,1,30,0,130,LOW,,LOW,RIDEM 2006 & GZA UMAP 2008,,Y,Y,N,Y,N,SMALL,Y,W,,,,,COVENTRY,0,N,
084,WENSCOTT RESERVOIR,TWIN RIVERS,RI02401,,,-71.46356968,41.87181092,PROVIDENCE,NORTH PROVIDENCE,WEST RIVER,1865,R,,"ROCKFILL,MASONRY,EARTH",320,,10,12,9,58,8,2,280,380,78,3,1067,169,426,SIGNIFICANT,,HIGH,GZA 2004,,Y,Y,Y,Y,Y,SMALL,Y,DS,,,,,NORTH PROVIDENCE,1,N,
085,GENEVA SPORTSMEN'S CLUB POND,HILL MILL POND,RI04256,,,-71.46107486,41.87026974,PROVIDENCE,NORTH PROVIDENCE,WEST RIVER,,F,,"EARTH,ROCKFILL",135,6,8,8,3,8,3,5,4,5,1,3,421,0,426,LOW,,LOW,RIDEM 2006,,Y,Y,N,Y,N,SMALL,Y,W,,,,,NORTH PROVIDENCE,0,N,
086,MEADER POND,,RI04234,,,-71.46772769,41.95031737,PROVIDENCE,LINCOLN,MUSSEY BROOK,,,,"ROCKFILL,EARTH,CONCRETE",100,4,5,5,4,1.6,4.5,4,10,12,4,0,40,0,50,LOW,,LOW,RIDEM 2006,,N,Y,N,N,N,SMALL,N,W,,,,,LINCOLN,0,N,
090,WHIPPLE POND,,RI04274,,,-71.43882752,41.85747909,PROVIDENCE,PROVIDENCE,WEST RIVER,,O,,"EARTH,MASONRY",260,12,13,13,9,67,9,4,14,19,3,7,2010,25,644,LOW,,LOW,RIDEM 2006,,Y,Y,N,Y,N,SMALL,Y,W,,,,,PROVIDENCE,0,N,
091,WANSKUCK POND,,RI04275,,,-71.43009944,41.8555336,PROVIDENCE,PROVIDENCE,WEST RIVER,1882,O,,"EARTH,MASONRY",14,9,14,14,10,39.5,10,3,50,65,12,8,1027,400,639,LOW,,LOW,RIDEM 2006,,Y,Y,N,Y,N,SMALL,Y,W,,,,,PROVIDENCE,0,N,
093,CANADA UPPER POND,,RI02801,,,-71.42627722,41.85477826,PROVIDENCE,PROVIDENCE,WEST RIVER-TRIB,1915,O,,"EARTH,ROCKFILL,CONCRETE",350,,20,21,17,35,17,3,129,144,23,2,600,138,319,SIGNIFICANT,,SIGNIFICANT,GZA 2004,,Y,Y,Y,Y,Y,SMALL,Y,DS,,,,,PROVIDENCE,0,N,
094,CANADA LOWER POND,,RI04276,,,-71.42598725,41.85327527,PROVIDENCE,PROVIDENCE,WEST RIVER,1908,O,,"EARTH,CONCRETE",100,7,5,6,3,33,3,2,2,2,0,2,434,0,323,LOW,,LOW,RIDEM 2006,,Y,Y,N,N,N,SMALL,N,W,,,,,PROVIDENCE,0,N,
095,SHIPPEE POND,,RI04257,,,-71.42526,41.85344,PROVIDENCE,NORTH PROVIDENCE,SHIPPEE BROOK,1935,O,,EARTH,100,11,5,5,2,8,2.5,2,2,2,1,2,78,0,328,LOW,,LOW,RIDEM 2006,,Y,Y,N,N,N,SMALL,N,W,,,,,NORTH PROVIDENCE,0,N,
096,GOULD POND,ANGELL'S POND,RI04326,,,-71.47115328,41.8759842,PROVIDENCE,SMITHFIELD,WEST RIVER,,O,,"EARTH,CONCRETE,MASONRY",125,2,6,6,4,2.25,4.5,0.8,5,6,2,0,8,0,19,LOW,,LOW,RIDEM 2006,,Y,Y,N,Y,N,SMALL,Y,W,,,,,SMITHFIELD,0,N,
097,BUTTERFLY POND,,RI04235,,,-71.43215942,41.90711216,PROVIDENCE,LINCOLN,MOSHASSUCK RIVER,1883,O,,"EARTH,MASONRY",200,9,8,8,7,45.5,7,2.8,20,26,4,5,855,0,550,LOW,,HIGH,GZA 2007,,Y,Y,Y,Y,Y,SMALL,Y,DS,,,,,LINCOLN,0,N,
098,PEACE POND,,RI04236,,,-71.42687989,41.90520092,PROVIDENCE,LINCOLN,MOSHASSUCK RIVER,,O,,"EARTH,MASONRY",100,9,11,11,8,20,8,3,5,7,1,5,360,0,550,LOW,,LOW,RIDEM 2006,,Y,Y,N,Y,N,SMALL,Y,W,,,,,LINCOLN,0,N,
099,MOFFETT POND,,RI04237,,,-71.42518619,41.90509795,PROVIDENCE,LINCOLN,MOSHASSUCK RIVER,1883,O,,"EARTH,MASONRY",40,9,10,10,9,36,8.75,1.25,4,5,0,5,147,90,572,LOW,,HIGH,GZA 2007,,Y,Y,Y,Y,Y,SMALL,Y,DS,,,,,LINCOLN,0,N,
100,GOLDFISH POND,,RI04230,,,-71.43544006,41.9052925,PROVIDENCE,LINCOLN,MOSHASSUCK RIVER-TRIB,,F,,EARTH,60,,6,7,4,3,4,1.5,6,8,2,0,25,0,20,LOW,,LOW,RIDEM 2006,,Y,Y,N,Y,N,SMALL,Y,W,,,,,LINCOLN,0,N,
101,BARNEY POND,,RI01701,,,-71.41432187,41.8965149,PROVIDENCE,LINCOLN,MOSHASSUCK RIVER,1885,R,,"MASONRY,GRAVITY,EARTH",200,,19,20,15,50,15,4,152,172,25,7,1400,272,650,LOW,,HIGH,GZA 2004,,Y,Y,Y,Y,Y,SMALL,Y,DS,,,,,LINCOLN,1,N,
102,OLNEY POND,LINCOLN WOODS PARK,RI01702,,,-71.42663569,41.89469913,PROVIDENCE,LINCOLN,THREADMILL BROOK,1883,R,,"MASONRY,GRAVITY,EARTH",220,,29.5,27,26,7,28,,1490,1860,133,1,88,78,156,HIGH,ACOE-1979,HIGH,ACOE 1979 & GZA UMAP 2008,,Y,Y,Y,Y,Y,MEDIUM,Y,DS,,,,,LINCOLN,2,N,
104,BLEACHERY POND,,RI04238,,,-71.40857571,41.89272826,PROVIDENCE,LINCOLN,MOSHASSUCK RIVER,1883,H,,EARTH,400,,8,8,4,55,4.5,3.4,20,30,8,7,1375,0,632,LOW,,HIGH,GZA 2004,,Y,Y,Y,Y,Y,SMALL,Y,DS,,,,,LINCOLN,0,N,
106,AMERICAN SCREW,,RI04559,,,-71.41166,41.83633,PROVIDENCE,PROVIDENCE,MOSHASSUCK RIVER,,,,,,,,,,,,,,,,,,,,LOW,,LOW,RIDEM 2006,,UNK,Y,N,N,N,,,W,,,,,PROVIDENCE,0,N,
107,PRIMROSE POND LOWER,,RI02506,,,-71.55411527,41.95523452,PROVIDENCE,NORTH SMITHFIELD,WOONASQUATUCKET RIVER,1865,R,,"ROCKFILL,MASONRY,GRAVITY,EARTH",250,3.5,8,8,4,8,3.5,1.5,27,34,9,2,52,0,255,LOW,,LOW,RIDEM 2006,,Y,Y,N,Y,N,SMALL,Y,W,,,,,NORTH SMITHFIELD,0,N,
108,STILLWATER RESERVOIR,STUMP POND,RI03101,,,-71.54209138,41.9089203,PROVIDENCE,SMITHFIELD,WOONASQUATUCKET RIVER,1918,FR,,"CONCRETE,EARTH,OTHER",670,,20,39,20,100,16,,2400,3900,240,26,1800,175,1127,HIGH,ACOE-1981,HIGH,ACOE 1981,,Y,Y,Y,Y,Y,MEDIUM,Y,DS,,,,,SMITHFIELD,2.5,N,
109,STILLWATER POND,,RI03102,,,-71.52516177,41.90790562,PROVIDENCE,SMITHFIELD,WOONASQUATUCKET RIVER,1885,O,,"GRAVITY,EARTH",745,,18,18,14,165,14,1,125,170,28,30,627,350,1222,SIGNIFICANT,,SIGNIFICANT,GZA 2004,,Y,Y,Y,Y,Y,SMALL,Y,DS,,,,,SMITHFIELD,2,N,
110,CAPRON POND,,RI04325,,,-71.52187352,41.90322117,PROVIDENCE,SMITHFIELD,WOONASQUATUCKET RIVER,,O,,"EARTH,MASONRY,CONCRETE",260,13,13,10,8,90,8.2,3.8,40,50,10,30,2354,24,1238,LOW,,LOW,GZA MAP 2008 & RIDEM 2008 (RIDEM 2007-SIG),,Y,Y,N,Y,N,SMALL,Y,W,,,,,SMITHFIELD,0,N,
111,WATERMAN LAKE,,RI03103,,,-71.57666782,41.87832638,PROVIDENCE,GLOCESTER / SMITHFIELD,STILLWATER RIVER,1837,R,,"EARTH,MASONRY",4630,,18,19,19,201,16,3,2430,3750,270,9,4422,60,673,SIGNIFICANT,ACOE-1978,HIGH,GZA 2004,,Y,Y,Y,Y,Y,MEDIUM,Y,DS,,,,,SMITHFIELD,0,N,
112,GREENVILLE MILL POND,,RI04324,,,-71.57148741,41.87742233,PROVIDENCE,SMITHFIELD,STILLWATER RIVER,,O,,"EARTH,MASONRY,CONCRETE",440,10,16,16,14,40,14,2,60,72,9,10,420,420,686,LOW,,LOW,RIDEM 2006,,Y,Y,N,Y,N,SMALL,Y,W,,,,,SMITHFIELD,0,N,
113,KNIGHT MILL POND,,RI04323,,,-71.56510925,41.87643812,PROVIDENCE,SMITHFIELD,STILLWATER RIVER,1917,O,,"EARTH,MASONRY",330,6,7.2,7,6,40,5.6,1.6,20,25,7,10,221,272,697,LOW,,LOW,RIDEM 2006,,Y,Y,N,Y,N,SMALL,Y,W,,,,,SMITHFIELD,0,N,
114,STILLWATER MILL POND,,RI04322,,,-71.55912776,41.87599567,PROVIDENCE,SMITHFIELD,STILLWATER RIVER,,O,,"EARTH,CONCRETE,MASONRY",200,8,15,16,10,63,10,2.5,35,50,7,11,1051,0,713,LOW,,LOW,RIDEM 2006,,Y,Y,N,Y,N,SMALL,Y,W,,,,,SMITHFIELD,0,N,
115,SLACK RESERVOIR,,RI03104,,,-71.55325319,41.86879352,PROVIDENCE,SMITHFIELD,STILLWATER RIVER-TRIB,1885,R,,"MASONRY,OTHER,GRAVITY,EARTH",220,,15,17,14,6,13.5,1.6,1300,1780,150,2,100,224,295,SIGNIFICANT,ACOE-1980,HIGH,ACOE 1980 & RIDEM DEF & GZA MAP 2008,,Y,Y,Y,Y,Y,MEDIUM,Y,DS,,,,,SMITHFIELD,0,N,
116,HOPKINS POND,,RI04321,,,-71.55189513,41.87094115,PROVIDENCE,SMITHFIELD,SLACK RESERVOIR BROOK,,O,,"EARTH,CONCRETE",25,12,9,11,5,4,5,4.8,10,18,4,2,325,0,337,LOW,,HIGH,GZA MAP 2008 & RIDEM 2008 (RIDEM 2007-SIG),DEM CONSIDERS ROAD D/S OF DAM,Y,Y,Y,Y,Y,SMALL,Y,DS,,,,,SMITHFIELD,0,N,
117,MOWRY POND,,RI04320,,,-71.55036922,41.87365723,PROVIDENCE,SMITHFIELD,SLACK RESERVOIR BROOK,,O,,"EARTH,MASONRY",95,8,10.3,10,9,10,8.7,1.5,4,5,1,2,60,0,,LOW,,LOW,GZA 2007 & RIDEM 2008,,Y,Y,N,Y,N,SMALL,Y,W,,,,,SMITHFIELD,0,N,
119,SEBILLE POND,,RI04319,,,-71.51203918,41.87125779,PROVIDENCE,SMITHFIELD,HAWKINS BROOK,,O,,"EARTH,MASONRY",80,6.5,9,10,6,3,6.5,2.25,6,9,2,1,32,0,126,LOW,,LOW,RIDEM 2006,,Y,Y,N,Y,N,SMALL,Y,W,,,,,SMITHFIELD,0,N,
120,SPRAGUE UPPER RESERVOIR,,RI03105,,,-71.56317135,41.89173123,PROVIDENCE,SMITHFIELD,STILLWATER RIVER-TRIB,1885,R,,"ROCKFILL,MASONRY,EARTH",252,,25,26,25,8,16,6,281,368,23,0,350,31,74,HIGH,ACOE-1979,HIGH,ACOE 1979 (NEED UPDATED RPT FROM OWNER?),,Y,Y,Y,Y,Y,SMALL,Y,DS,,,,,SMITHFIELD,1,N,
121,SPRAGUE LOWER RESERVOIR,LAKE WIONKHEIGE,RI03109,,,-71.5451355,41.88528441,PROVIDENCE,SMITHFIELD,STILLWATER RIVER-TRIB,1822,R,,"EARTH,CONCRETE",250,,15,19,14,45,14,3,165,255,30,1,800,6,770,LOW,,HIGH,GZA 2004,,Y,Y,Y,Y,Y,SMALL,Y,DS,,,,,SMITHFIELD,1,N,
122,GRANITE MILL POND,,RI04318,,,-71.53939055,41.88823321,PROVIDENCE,SMITHFIELD,REAPER BROOK,,O,,"EARTH,MASONRY",60,10.5,11.6,12,8,53,8,4,8,11,2,13,1723,0,745,LOW,,LOW,RIDEM 2006,,Y,Y,N,Y,N,SMALL,Y,W,,,,,SMITHFIELD,0,N,
123,HAWKINS POND,FOUNTAIN SPRING POND,RI03106,,,-71.54502104,41.86282347,PROVIDENCE,SMITHFIELD,REAPER BROOK,1885,R,,"ROCKFILL,MASONRY,EARTH",150,,10,10,9,3,9,1.5,110,132,26,1,20,28,126,LOW,,SIGNIFICANT,GZA 2004,,Y,Y,Y,Y,Y,SMALL,Y,DS,,,,,SMITHFIELD,0,N,
124,REAPER POND,MOSQUITOVILLE POND,RI04317,,,-71.54167942,41.86417772,PROVIDENCE,SMITHFIELD,REAPER BROOK,,O,,"EARTH,MASONRY",210,8,5,5,2,4,2.5,2.5,5,8,4,1,56,0,144,LOW,,LOW,RIDEM 2006,,Y,Y,N,N,N,SMALL,N,W,,,,,SMITHFIELD,0,N,
125,MOUNTAINDALE RESERVOIR,,RI03107,,,-71.53610233,41.88528058,PROVIDENCE,SMITHFIELD,REAPER BROOK,1885,R,,"GRAVITY,EARTH",120,7,10,10,8,14,8,2,35,50,11,2,156,61,312,LOW,,LOW,RIDEM 2006,,Y,Y,N,Y,N,SMALL,Y,W,,,,,SMITHFIELD,0,N,
126,GEORGIAVILLE POND,,RI03108,,,-71.50653076,41.89309309,PROVIDENCE,SMITHFIELD,WOONASQUATUCKET RIVER,1882,R,,"GRAVITY,EARTH",1200,,33,35,27,112.5,27,5,1300,1950,130,34,3773,764,10600,HIGH,ACOE-1979,HIGH,ACOE 1979 & GZA UMAP 2008,,Y,Y,Y,Y,Y,MEDIUM,Y,DS,,,,,SMITHFIELD,0,N,
127,BELKNAP POND,,RI04215,,,-71.50595098,41.84923176,PROVIDENCE,JOHNSTON,ASSAPUMPSET BROOK,,O,,"EARTH,MASONRY,CONCRETE",300,10.5,8,8,7,14,7,0.75,6,7,2,1,21,42,190,LOW,,SIGNIFICANT,GZA 2007,,Y,Y,Y,Y,Y,SMALL,Y,DS,,,,,JOHNSTON,0,N,
128,ESMOND MILL UPPER POND,,RI04316,,,-71.50221256,41.87904743,PROVIDENCE,SMITHFIELD,WOONASQUATUCKET RIVER,1991,O,,"EARTH,CONCRETE,MASONRY",180,5,12.5,14,3,75,3,7,2,6,1,36,4860,0,1408,LOW,,LOW,RIDEM 2006,,Y,Y,N,Y,N,SMALL,Y,W,,,,,SMITHFIELD,0,N,
129,ESMOND MILL MIDDLE POND,,RI04315,,,-71.50024414,41.87697223,PROVIDENCE,SMITHFIELD,WOONASQUATUCKET RIVER,,O,,"EARTH,CONCRETE",55,1,4,8,4,48,3,3,2,3,1,36,873,0,1408,LOW,,LOW,RIDEM 2006,,N,Y,N,N,N,SMALL,N,W,,,,,SMITHFIELD,0,N,
130,ESMOND MILL LOWER POND,,RI04314,,,-71.49815364,41.87508771,PROVIDENCE,SMITHFIELD,WOONASQUATUCKET RIVER,,O,,MASONRY,100,,4,4,3,,3,,2,2,1,36,,,1408,LOW,,LOW,RIDEM 2006,,N,Y,N,N,N,SMALL,N,W,,,,,SMITHFIELD,0,N,
131,GREYSTONE,,RI01604,,,-71.49243169,41.86607357,PROVIDENCE,JOHNSTON / NORTH PROVIDENCE,WOONASQUATUCKET RIVER,1865,,,"ROCKFILL,MASONRY,EARTH",355,,7,10,6,67,6,2.8,81,116,13,39,1039,543,1521,SIGNIFICANT,,LOW,GZA 2004,,Y,Y,N,Y,N,SMALL,Y,W,,,,,NORTH PROVIDENCE/JOHNSTON,0,N,
132,CENTREDALE,,RI04568,,,-71.487562,41.859602,PROVIDENCE,NORTH PROVIDENCE / JOHNSTON,WOONASQUATUCKET RIVER,,,,,0,,,0,,,,,0,0,0,0,0,,,LOW,,LOW,RIDEM 2006,,UNK,Y,N,N,N,,,W,,,,,,,N,
133,ALLENDALE POND,,RI02403,,,-71.48179623,41.85102082,PROVIDENCE,NORTH PROVIDENCE,WOONASQUATUCKET RIVER,1865,O,,"EARTH,OTHER",234,,15,19,12,106,10,3,43,68,13,40,2226,578,1548,LOW,,LOW,RIDEM 2006,,Y,Y,N,Y,N,SMALL,Y,W,,,,,JOHNSTON,0,N,
134,LYMANSVILLE,,RI02402,,,-71.47739408,41.8395615,PROVIDENCE,JOHNSTON / NORTH PROVIDENCE,WOONASQUATUCKET RIVER,1925,O,,"ROCKFILL,EARTH",500,,13,14,10,105,10,3.5,120,167,25,45,2730,756,1700,LOW,,LOW,RIDEM 2006,,Y,Y,N,Y,N,SMALL,Y,W,,,,,NORTH PROVIDENCE,0,N,
135,MANTON MILL POND,,RI04277,,,-71.47212978,41.83495329,PROVIDENCE,JOHNSTON / PROVIDENCE,WOONASQUATUCKET RIVER,1945,O,,CONCRETE,165,,10,14,6,85,6,4.5,22,60,9,46,3315,559,1748,LOW,,LOW,RIDEM 2006,,Y,Y,N,Y,N,SMALL,Y,W,,,,,PROVIDENCE,0,N,
138,ATLANTIC MILLS POND,,RI04278,,,-71.44895172,41.81862259,PROVIDENCE,PROVIDENCE,WOONASQUATUCKET RIVER,,O,,"EARTH,MASONRY",220,,12,12,10,98,9.5,2.75,25,32,5,48,1564,223,1776,LOW,,LOW,RIDEM 2006,,Y,Y,N,Y,N,SMALL,Y,W,,,,,PROVIDENCE,0,N,
140,RISING SUN POND,,RI04280,,,-71.44200899,41.82209393,PROVIDENCE,PROVIDENCE,WOONASQUATUCKET RIVER,1905,O,,CONCRETE,120,,13,13,9,96,9,4,13,19,3,49,2746,1472,1828,LOW,,LOW,RIDEM 2006,,Y,Y,N,Y,N,SMALL,Y,W,,,,,PROVIDENCE,0,N,
142,HARRIS POND,,RI04313,,,-71.50644687,41.91374974,PROVIDENCE,SMITHFIELD,HARRIS BROOK,,O,,"EARTH,CONCRETE,MASONRY",150,4,4.3,4,3,12,3,1.6,10,12,4,1,,0,175,LOW,,LOW,RIDEM 2006,,N,Y,N,N,N,SMALL,N,W,,,,,SMITHFIELD,0,N,
144,FRUIT OF THE LOOM,PONTIAC,RI03501,,,-71.47136688,41.72624971,KENT,WARWICK,PAWTUXET RIVER,1918,O,,"CONCRETE,GRAVITY,EARTH",100,,10,11,10,96,6,5,120,200,20,197,4070,524,6000,SIGNIFICANT,,LOW,GZA 2004,,Y,Y,N,Y,N,SMALL,Y,W,,,,,WARWICK,0,N,
145,NATICK POND,,RI03801,,,-71.49240108,41.71738052,KENT,WEST WARWICK,PAWTUXET RIVER,1886,O,,"ROCKFILL,MASONRY",263,,25,30.4,25,166,20,9.4,500,1100,46,182,4700,206,5500,HIGH,ACOE-1979,HIGH,ACOE 1979 & GZA UMAP 2008,,Y,Y,Y,Y,Y,SMALL,Y,DS,,,,,WEST WARWICK,0,N,
146,RIVERPOINT POND LOWER,,RI04366,,,-71.51267242,41.7148323,KENT,WEST WARWICK,PAWTUXET RIVER-SOUTH BRANCH,,O,,"EARTH,MASONRY",190,14,14,14,14,100,9,5,18,28,4,74,3900,1944,5844,LOW,,LOW,RIDEM 2006,,Y,Y,N,Y,N,SMALL,Y,W,,,,,WEST WARWICK,0,N,
147,RIVERPOINT POND UPPER,ROYAL MILLS,RI04367,,,-71.51645666,41.71281433,KENT,WEST WARWICK,PAWTUXET RIVER-SOUTH BRANCH,,O,,"EARTH,MASONRY",120,28,22,24,20,75,20,3,70,90,6,74,1364,150,4864,LOW,,HIGH,GZA MAP 2008,,N,Y,N,N,N,SMALL,N,W,FERC,,,,WEST WARWICK,0,N,
148,ARCTIC,FACTORY STREET,RI03802,,,-71.52044674,41.70704651,KENT,WEST WARWICK,PAWTUXET RIVER-SOUTH BRANCH,1885,H,,"ROCKFILL,MASONRY,EARTH",150,,28,28,26,110,26,1.5,173,194,14,73,3080,60,3020,HIGH,ACOE-1981,HIGH,ACOE 1981 (NEED MAP FROM OWNER),,N,Y,N,N,N,SMALL,N,W,FERC,,,,WEST WARWICK,0,N,
149,CENTERVILLE POND,,RI03803,,,-71.52109528,41.69686127,KENT,WEST WARWICK,PAWTUXET RIVER,1885,O,,"MASONRY,GRAVITY,EARTH",150,,16,23,12,60,16,4,310,350,14,73,2700,30,3020,SIGNIFICANT,,HIGH,GZA 2004,,Y,Y,Y,Y,Y,SMALL,Y,DS,,,,,WEST WARWICK,1,N,
150,CROMPTON LOWER,,RI03804,,,-71.52521517,41.68575668,KENT,WEST WARWICK,PAWTUXET RIVER-SOUTH BRANCH,1885,O,,"MASONRY,GRAVITY,EARTH",350,9.5,8,12,8,225,8,3,122,182,20,72,4090,0,4732,LOW,,LOW,RIDEM 2006,,Y,Y,N,Y,N,SMALL,Y,W,,,,,WEST WARWICK,1,N,
151,QUIDNICK POND UPPER,,RI04037,,,-71.54135127,41.6952133,KENT,COVENTRY,PAWTUXET RIVER-SOUTH BRANCH,,O,,"EARTH,MASONRY",130,,17,18,14,110,14,4,42,51,6,69,3360,43,4610,SIGNIFICANT,,LOW,GZA 2004 & DEM 09/18/2012,SIGNIFICANT HAZ APPEALED,Y,Y,N,Y,N,SMALL,Y,W,,,,,COVENTRY,0,N,
152,MILL POND,ANTHONY MILL POND,RI00607,,,-71.54697422,41.69553758,KENT,COVENTRY,PAWTUXET RIVER-SOUTH BRANCH,1800,O,,"GRAVITY,EARTH",285,,19,21,14,80,14,5,308,462,30,68,3130,103,4577,SIGNIFICANT,,SIGNIFICANT,GZA 2004,,Y,Y,Y,Y,Y,SMALL,Y,DS,,,,,COVENTRY,0,N,
153,WASHINGTON POND UPPER,,RI00608,,,-71.56733704,41.69017791,KENT,COVENTRY,PAWTUXET RIVER-SOUTH BRANCH,1875,O,,"ROCKFILL,MASONRY,GRAVITY,EARTH",100,,12,16,12,65,12,4.4,173,230,12,68,2205,180,4338,SIGNIFICANT,,LOW,GZA 2004,,Y,Y,N,Y,N,SMALL,Y,W,,,,,COVENTRY,0,N,
155,RIVERPOINT MILL POND DAM,LIPPITT,RI04369,,,-71.52793123,41.72002412,KENT,WEST WARWICK,PAWTUXET RIVER-NORTH BRANCH,,O,,"EARTH,MASONRY",185,0,13,13,10,175,10,4,10,14,2,106,4900,,6230,LOW,,LOW,RIDEM 2006,,Y,Y,N,Y,N,SMALL,Y,W,,,,,WEST WARWICK,0,N,
156,PHENIX MILL POND,,RI04370,,,-71.53099819,41.72040556,KENT,WEST WARWICK,PAWTUXET RIVER-NORTH BRANCH,,O,,"EARTH,MASONRY",160,20,19,21,15,150,15,6,30,42,4,104,7375,,6160,LOW,,LOW,RIDEM 2006,,Y,Y,N,Y,N,SMALL,Y,W,,,,,WEST WARWICK,0,N,
157,HARRIS POND,,RI04038,,,-71.53971863,41.72542574,KENT,COVENTRY,PAWTUXET RIVER-NORTH BRANCH,1882,O,,"ROCKFILL,EARTH",280,,24,24,19,150,17,4.7,60,80,8,102,6000,352,6150,SIGNIFICANT,,LOW,FUSS&ONEILL/DEM 2016,SIGNIFICANT HAZ APPEALED,Y,Y,N,Y,N,SMALL,N,W,,,,,WEST WARWICK,0,N,
158,ARKWRIGHT POND,,RI04039,,,-71.54554744,41.72969819,KENT,COVENTRY,PAWTUXET RIVER-NORTH BRANCH,,O,,"EARTH,MASONRY",180,,21,22,16,133,16,6,40,50,5,102,6667,,6090,SIGNIFICANT,,LOW,GZA 2004,,Y,Y,N,Y,N,SMALL,Y,W,,,,,WEST WARWICK,1,N,
160,HOPE,,RI03005,,,-71.56428529,41.73106764,PROVIDENCE,SCITUATE,PAWTUXET RIVER-NORTH BRANCH,1885,HR,,"MASONRY,GRAVITY,EARTH",300,,19,19,12,147,12,7,264,418,35,98,10730,550,5940,SIGNIFICANT,,SIGNIFICANT,GZA 2004,,Y,Y,Y,Y,Y,SMALL,Y,DS,,,,,SCITUATE,0,N,
161,GAINER MEMORIAL,SCITUATE RESERVOIR,RI03001,2,D01,-71.58486176,41.75326919,PROVIDENCE,SCITUATE,PAWTUXET RIVER-NORTH BRANCH,1926,S,Y,"EARTH,GRAVITY,CONCRETE",3200,,109,189,96,440,96,15,114000,164850,3390,93,53520,2140,5754,HIGH,ACOE-1978,HIGH,ACOE 1978 (NEED GZA RPT FROM OWNER),,Y,Y,Y,Y,Y,LARGE,Y,DS,,,,,SCITUATE,2,N,
162,MOSWANSICUT POND,,RI03002,,,-71.58254239,41.84088895,PROVIDENCE,SCITUATE,MOSWANSICUT BROOK,1919,S,Y,"EARTH,MASONRY",400,,14,15,10,17,9,5.1,5466,5750,282,4,310,260,325,LOW,ACOE-1980,SIGNIFICANT,GZA 2004,,Y,Y,Y,Y,Y,MEDIUM,Y,DS,,,,,SCITUATE,1,N,
163,WESTCONNAUG RESERVOIR,,RI01201,,,-71.67716975,41.77225878,PROVIDENCE,FOSTER,WESTCONNAUG BROOK,1924,S,Y,"EARTH,MASONRY,CONCRETE",322,,17,17,14,16,14,4,1390,1620,174,4,220,40,464,HIGH,ACOE-1981,HIGH,ACOE 1981 (NEED RPT FROM OWNER),,Y,Y,Y,Y,Y,MEDIUM,Y,DS,,,,,SCITUATE,1,N,
164,BARDEN RESERVOIR,,RI03003,,,-71.67375184,41.79198073,PROVIDENCE,SCITUATE,PONAGANSET RIVER,1883,S,Y,"MASONRY,GRAVITY,EARTH",612,,31,35,30,82,25,7.2,2620,4320,240,33,4654,141,6708,SIGNIFICANT,ACOE-1980,SIGNIFICANT,GZA 2004,,Y,Y,Y,Y,Y,MEDIUM,Y,DS,,,,,SCITUATE,0,N,
165,PONAGANSET RESERVOIR,,RI01304,,,-71.74193568,41.86777117,PROVIDENCE,GLOCESTER,PONAGANSET RIVER,1865,S,Y,"EARTH,CONCRETE",635,,25,26,23,8,23,5.75,2277,3657,230,2,130,26,1028,SIGNIFICANT,ACOE-1980,HIGH,ACOE 1980 & RIDEM DEF (NEED GZA RPT FROM OWNER),,Y,Y,Y,Y,Y,MEDIUM,Y,DS,,,,,GLOCESTER,3,N,
166,CURRAN UPPER RESERVOIR,J.L. CURRAN RESERVOIR,RI00702,,,-71.55107119,41.75054932,PROVIDENCE,CRANSTON,CLARKE BROOK,1902,FR,,"EARTH,MASONRY",1200,,27,29,22,47,5,3.5,390,500,32,1,923,200,480,SIGNIFICANT,ACOE-1980,HIGH,"ACOE 1980, RIDEM DEF & GZA UMAP 2008",,Y,Y,Y,Y,Y,SMALL,Y,DS,,,,,CRANSTON,1,N,
167,FLAT RIVER RESERVOIR,JOHNSON'S POND,RI00601,,,-71.59472653,41.69443512,KENT,COVENTRY,PAWTUXET RIVER-SOUTH BRANCH,1873,R,,"GRAVITY,EARTH",750,,20,24,9,175,9,7.1,4195,12650,950,58,12000,1012,5370,HIGH,ACOE-1981,HIGH,ACOE 1981 (NEED MAP FROM OWNER),,Y,Y,Y,Y,Y,MEDIUM,Y,DS,,,,,COVENTRY,2,N,
168,OAK SWAMP RESERVOIR,,RI01601,,,-71.53818517,41.8257561,PROVIDENCE,JOHNSTON,DRY BROOK,1865,R,,"MASONRY,GRAVITY,EARTH",1310,,7,20,8,19,8,2,556,720,107,1,540,0,145,LOW,,HIGH,GZA 2004,,Y,Y,Y,Y,Y,SMALL,Y,DS,,,,,JOHNSTON,3,N,
169,ALMY RESERVOIR,,RI01606,,,-71.52053837,41.81468578,PROVIDENCE,JOHNSTON,DRY BROOK,1865,O,,"ROCKFILL,MASONRY,EARTH",950,,33,,,96,27,6,694,1030,56,2,2700,0,173,SIGNIFICANT,ACOE-1980,HIGH,"ACOE 1980, RIDEM DEF & GZA UMAP 2008",,Y,Y,Y,Y,Y,MEDIUM,Y,DS,,,,,JOHNSTON,2,N,
170,SIMMONS UPPER RESERVOIR,,RI01602,,,-71.51953124,41.79708863,PROVIDENCE,JOHNSTON,CEDAR SWAMP BROOK,1865,D,,"MASONRY,GRAVITY,EARTH",650,,16,16,12,25,12,2.5,384,430,48,3,375,83,351,LOW,,HIGH,GZA 2004,,Y,Y,Y,Y,Y,SMALL,Y,DS,,,,,JOHNSTON,2,N,
171,SIMMONS LOWER RESERVOIR,,RI01607,,,-71.50913243,41.79114913,PROVIDENCE,JOHNSTON,CEDAR SWAMP BROOK,1865,O,,"GRAVITY,EARTH",1200,,10,12,10,62,10,1.6,264,317,49,4,438,98,516,LOW,,HIGH,GZA 2004,,Y,Y,Y,Y,Y,SMALL,Y,DS,,,,,JOHNSTON,2,N,
172,CRANSTON PRINT WORKS POND,,RI00701,,,-71.45970919,41.79346467,PROVIDENCE,CRANSTON,POCASSET RIVER,1825,O,,"MASONRY,GRAVITY,EARTH",350,,17,17,14,100,14,3,180,255,25,18,1715,182,1584,HIGH,ACOE-1980,HIGH,ACOE 1980 & GZA UMAP 2008,,Y,Y,Y,Y,Y,SMALL,Y,DS,,,,,CRANSTON,1,N,
174,MASHAPAUG POND,,RI04281,,,-71.43058774,41.78973006,PROVIDENCE,PROVIDENCE,MASHAPAUG BROOK,,R,,"EARTH,CONCRETE",200,4,5,5,3,5.5,3,1.5,602,670,86,2,38,0,325,LOW,,LOW,RIDEM 2006,,Y,Y,N,Y,N,SMALL,Y,W,,,,,PROVIDENCE,0,N,
175,QUIDNICK RESERVOIR,,RI00602,,,-71.67772671,41.68548203,KENT,COVENTRY,QUIDNICK BROOK,1875,R,,"MASONRY,GRAVITY,EARTH",700,,11,14,10,30,10,2,684,750,171,3,495,0,390,LOW,,SIGNIFICANT,GZA 2004,,Y,Y,Y,Y,Y,SMALL,Y,DS,,,,,COVENTRY,3,N,
176,COVENTRY RESERVOIR,STUMP POND,RI00603,,,-71.63659672,41.70088578,KENT,COVENTRY,QUIDNICK BROOK,1875,R,,"ROCKFILL,MASONRY,GRAVITY,EARTH",360,,12,15,12,50,12,3,782,848,171,3,970,0,848,LOW,,HIGH,GZA 2004,,Y,Y,Y,Y,Y,SMALL,Y,DS,,,,,COVENTRY,0,N,
177,TIOGUE LAKE,,RI00604,,,-71.55078797,41.68480367,KENT,COVENTRY,TIOGUE RIVER,1875,R,,"MASONRY,GRAVITY,EARTH",1400,,9,15,14,30,7,1.3,1335,1468,267,2,210,50,325,LOW,,HIGH,GZA 2004,,Y,Y,Y,Y,Y,MEDIUM,Y,DS,,,,,COVENTRY,1,N,
178,SPRING LAKE,MISHNOCK SWAMP,RI04040,,,-71.58076476,41.67914961,KENT,COVENTRY,MISHNOCK RIVER,,O,,"EARTH,CONCRETE",,3.5,7,7,2,6,1.5,5,3,10,4,3,,0,368,LOW,,LOW,RIDEM 2006,,Y,Y,N,Y,N,SMALL,Y,W,,,,,COVENTRY,1,N,
180,HOPKINS MILL POND,,RI01203,,,-71.70793915,41.82405092,PROVIDENCE,FOSTER,PONAGANSET RIVER,1865,O,,"ROCKFILL,EARTH",120,10,5,9,4,,3,,50,109,,13,,,,LOW,,LOW,RIDEM 2006,,Y,Y,N,Y,N,SMALL,Y,W,,,,,FOSTER,0,N,
181,RATHBON POND,,RI04359,,,-71.61909486,41.60261153,KENT,WEST GREENWICH,CONGDON RIVER,,O,,EARTH,270,,8,8,6,7,6,,12,15,4,3,70,,,LOW,,LOW,RIDEM 2006,,Y,Y,N,Y,N,SMALL,Y,W,,,,,WEST GREENWICH,0,N,
182,MONEY SWAMP POND,,RI04120,,,-71.61532591,41.59348677,WASHINGTON,EXETER,CONGDON RIVER,,,,,130,7,8,8,7,3,7,0.8,6,8,2,1,10,0,90,LOW,,LOW,RIDEM 2006,,Y,Y,N,Y,N,SMALL,Y,W,,,,,WEST GREENWICH,1,N,
183,TARBOX POND,,RI03701,,,-71.57351685,41.63638304,KENT,WEST GREENWICH,CARR RIVER,1885,R,,"EARTH,GRAVITY,CONCRETE",113,10,9,11,9,8,7,1,210,255,30,2,576,0,312,LOW,,LOW,RIDEM 2006,,Y,Y,N,Y,N,SMALL,Y,W,,,,,WEST GREENWICH,0,N,
184,CARR POND,,RI03703,,,-71.55819707,41.63066101,KENT,WEST GREENWICH,CARR RIVER,1885,R,,"GRAVITY,EARTH",100,,6,8,6,0,6,0,1320,1520,80,1,0,40,90,LOW,,LOW,RIDEM 2006,,Y,Y,N,Y,N,MEDIUM,Y,W,,,,,WEST GREENWICH,0,N,
185,BLACK ROCK RESERVOIR,,RI00610,2,DIKE LOW HAZARD,-71.55370333,41.72004318,KENT,COVENTRY,BLACKROCK BROOK,1885,R,,"MASONRY,GRAVITY,EARTH",280,9.5,11,11,8,12,8,3,100,150,17,1,262,12,131,LOW,,HIGH,GZA 2007,DIKE LOW HAZARD,Y,Y,Y,Y,Y,SMALL,Y,DS,,,,,WEST WARWICK,1,N,
186,UPPER POND,BREEZY LAKE,RI00609,,,-71.5537109,41.70465471,KENT,COVENTRY,NORTHRUP BROOK,1900,R,,"GRAVITY,EARTH",300,5.5,6,13,11,5.5,4,1.5,40,50,15,0,35,0,61,LOW,,SIGNIFICANT,GZA 2007,,Y,Y,Y,Y,Y,SMALL,Y,DS,,,,,COVENTRY,1,N,
187,MIDDLE POND,,RI00611,,,-71.55402369,41.70004273,KENT,COVENTRY,NORTHRUP BROOK,1960,R,,EARTH,135,8,10,10,8,10,8,2,40,50,8,1,100,0,90,LOW,,SIGNIFICANT,GZA 2007,,Y,Y,Y,Y,Y,SMALL,Y,DS,,,,,COVENTRY,1,N,
188,MILLBROOK POND,HOPKINS POND,RI01101,,,-71.62298585,41.59480285,WASHINGTON,EXETER,CONGDON RIVER,1895,R,,"ROCKFILL,EARTH",95,8,7,8,6,12,7,1.5,175,234,35,2,75,40,312,LOW,,LOW,RIDEM 2006,,Y,Y,N,Y,N,SMALL,Y,W,,,,,WEST GREENWICH,1,N,
189,YARD POND,,RI04358,,,-71.63976292,41.62905502,KENT,WEST GREENWICH,NOOSENECK RIVER,,O,,"EARTH,MASONRY",160,6,6,6,4,10,3.5,1,10,12,4,0,30,2,47,LOW,,LOW,RIDEM 2006,,Y,Y,N,Y,N,SMALL,Y,W,,,,,WEST GREENWICH,0,N,
191,COVENTRY CENTER POND LOWER,,RI04042,,,-71.63600155,41.70397949,KENT,COVENTRY,QUIDNICK BROOK,,O,,"MASONRY,EARTH",180,6.5,9,,,15,8,1.7,8,10,2,8,138,,850,LOW,,LOW,RIDEM 2006,,Y,Y,N,Y,N,SMALL,Y,W,,,,,COVENTRY,0,N,
192,FISKEVILLE,,RI04569,,,-71.54959,41.73249,PROVIDENCE,SCITUATE,PAWTUXET RIVER,,,,,0,11,13.5,0,,,,,0,0,0,0,0,,,LOW,,LOW,RIDEM 2006,,Y,Y,N,Y,N,,Y,W,,,,,,,N,
193,NOOSENECK MILL,,RI04570,,,-71.62875,41.62631,KENT,WEST GREENWICH,NOOSENECK RIVER,,,,,0,,,0,,,,,0,0,0,0,0,,,LOW,,LOW,RIDEM 2006,,UNK,Y,N,N,N,,,W,,,,,,,N,
194,CROMPTON UPPER,,RI04043,,,-71.53431702,41.68246458,KENT,COVENTRY,PAWTUXET RIVER-SOUTH BRANCH,,O,,"MASONRY,EARTH",200,8.5,11,11,8,150,7.5,3,12,18,3,70,3400,,4663,LOW,,LOW,RIDEM 2006,,Y,Y,N,Y,N,SMALL,Y,W,,,,,COVENTRY,1,N,
195,QUIDNICK POND LOWER,,RI04044,,,-71.5399094,41.69053649,KENT,COVENTRY,PAWTUXET RIVER-SOUTH BRANCH,,O,,"EARTH,MASONRY",150,,8,9,6,175,6,2.5,15,18,4,69,2700,1500,4623,LOW,,LOW,RIDEM 2006,,Y,Y,N,Y,N,SMALL,Y,W,,,,,COVENTRY,1.5,N,
196,FLAT TOP,,RI04571,,,-71.52826,41.67823,KENT,WEST WARWICK,HAWKINSON BROOK,,,,,0,6,8,0,,,,,0,0,0,0,0,,,LOW,,LOW,RIDEM 2006,,Y,Y,N,Y,N,,Y,W,,,,,,,N,
197,SEARLES CAPWELL POND,,RI04045,,,-71.5527039,41.69703293,KENT,COVENTRY,NORTHRUP BROOK,,,,,,6,6,6,5,,5,,33,49,13,,,,,LOW,,LOW,RIDEM 2006,,Y,Y,N,Y,N,SMALL,Y,W,,,,,COVENTRY,1,N,
198,CURRAN LOWER RESERVOIR,SPRING LAKE,RI00703,,,-71.54538729,41.74174502,PROVIDENCE,CRANSTON,CLARKE BROOK,1950,FR,,"GRAVITY,EARTH",1300,,17,17,17,50,3,2.5,200,250,20,1,650,17,598,SIGNIFICANT,ACOE-1981,HIGH,"ACOE 1981, RIDEM DEF & GZA UMAP 2008",,Y,Y,Y,Y,Y,SMALL,Y,DS,,,,,CRANSTON,1,N,
200,HAZARD POND,,RI04357,,,-71.78206636,41.6264534,KENT,WEST GREENWICH,FALLS RIVER,,O,,"EARTH,MASONRY",130,6,7,7,6,22,6,1,170,238,68,10,100,60,690,LOW,,LOW,RIDEM 2006,,Y,Y,N,N,N,SMALL,N,W,,,,,WEST GREENWICH,0,N,
201,TILLINGHAST POND,,RI04356,,,-71.75881958,41.64912795,KENT,WEST GREENWICH,CONEY BROOK,,O,,EARTH,100,4,3.5,3,2,4,2.5,1,208,234,52,0,40,,90,LOW,,LOW,RIDEM 2006,,Y,Y,N,Y,N,SMALL,Y,W,,,,,WEST GREENWICH,0,N,
203,HUDSON POND,,RI04354,,,-71.75975037,41.62907027,KENT,WEST GREENWICH,KELLEY BROOK,,O,,"EARTH,CONCRETE",90,10,11,11,8,6,8.5,2.5,34,44,10,4,80,120,455,LOW,,LOW,RIDEM 2006,,Y,Y,N,Y,N,SMALL,Y,W,,,,,WEST GREENWICH,0,N,
205,PRATT POND,,RI04128,,,-71.75769046,41.5787506,WASHINGTON,EXETER,PARRISS BROOK,,,,,320,8,8,8,6,35.5,5,1.75,8,11,2,3,245,15,392,LOW,,LOW,RIDEM 2006,,Y,Y,N,Y,N,SMALL,Y,W,,,,,EXETER,0,N,
206,TIPPECANSETT POND,,RI04352,,,-71.77893828,41.59983062,KENT,WEST GREENWICH,PARRIS BROOK,,O,,EARTH,100,5,4,4,3,,,,140,168,56,1,,,204,LOW,,LOW,RIDEM 2006,,Y,Y,N,Y,N,SMALL,Y,W,,,,,WEST GREENWICH,0,N,
207,EISENHOWER LAKE,K A LOUTTIT LOWER POND,RI03702,,,-71.71921534,41.61701584,KENT,WEST GREENWICH,ACID FACTORY BK,1931,R,,"GRAVITY,EARTH",450,,14,15,10,28,10,3.3,280,340,56,4,572,357,525,LOW,,LOW,GZA 2004,,Y,Y,N,Y,N,SMALL,Y,W,,,,,WEST GREENWICH,0,N,
208,DEXTER POND,,RI04129,,,-71.75981903,41.56315613,WASHINGTON,EXETER,WOODY HILL BROOK,,,,,150,7,6,,,9,3,3,3,6,1,1,266,,108,LOW,,LOW,RIDEM 2006,,Y,Y,N,Y,N,SMALL,Y,W,,,,,EXETER,0,N,
210,OLD MILL POND #1,LEWIS CITY POND,RI04351,,,-71.71971892,41.60022353,KENT,WEST GREENWICH,FLAT RIVER,,R,,EARTH,,,5,5,3,,3,,2,3,1,8,,,547,LOW,,LOW,RIDEM 2006,,N,Y,N,N,N,SMALL,N,W,,,,,WEST GREENWICH,0,N,
211,OLD MILL POND #2,PHILLIPS POND,RI04350,,,-71.7323074,41.62136078,KENT,WEST GREENWICH,PHILLIPS BROOK,,O,,"EARTH,MASONRY,CONCRETE",290,5,6.2,6,4,12,4,2,10,14,3,2,117,17,238,LOW,,LOW,RIDEM 2006,,Y,Y,N,Y,N,SMALL,Y,W,,,,,WEST GREENWICH,0,N,
212,KNOX FARM POND,,RI04364,,,-71.72036746,41.63216399,KENT,WEST GREENWICH,ACID FACTORY BROOK,,P,,"EARTH,MASONRY",760,9,5.5,6,2,27,2.5,2,3,6,2,1,228,27,255,LOW,,LOW,RIDEM 2006,,Y,Y,N,N,N,SMALL,N,W,,,,,WEST GREENWICH,0,N,
213,OLD MILL NO. 3,,RI04572,,,-71.69346,41.63262,KENT,WEST GREENWICH,BREAKHEART BROOK,,,,,0,,,0,,,,,0,0,0,0,0,,,LOW,,LOW,RIDEM 2006,,UNK,Y,N,N,N,,,W,,,,,,,N,
214,BREAKHEART POND,,RI01102,,,-71.70329282,41.59545899,WASHINGTON,EXETER,BREAKHEART BROOK,1900,FR,,"EARTH,GRAVITY,CONCRETE",300,12.5,13,15,13,41,12,3.5,250,300,48,6,964,86,964,LOW,,LOW,RIDEM 2006,,Y,Y,N,N,N,SMALL,N,W,,,,,EXETER,1,N,Y
215,BARBERVILLE POND,,RI04387,,,-71.69618,41.54084,WASHINGTON,HOPKINTON / RICHMOND,WOOD RIVER,1882,FR,,MASONRY,125,9,11,11,6,92,6,2.8,120,184,21,55,1523,0,1589,LOW,,SIGNIFICANT,GZA MAP 2008,,Y,Y,Y,Y,Y,SMALL,Y,DS,,,,,HOPKINTON,0,N,
216,WYOMING UPPER,,RI01401,,,-71.70340729,41.51592255,WASHINGTON,HOPKINTON / RICHMOND,WOOD RIVER,1885,FR,,"MASONRY,GRAVITY,EARTH",310,,11,15,13,206,14,2.5,385,444,74,59,2290,0,1700,SIGNIFICANT,,HIGH,GZA 2004,,Y,Y,Y,Y,Y,SMALL,Y,DS,,,,,HOPKINTON,0,N,
217,WYOMING POND LOWER,,,,,0,0,,HOPKINTON,WOOD RIVER,0,,,,0,,,0,,,,,0,0,0,0,0,,,LOW,,LOW,RIDEM 2006,,,Y,N,N,N,,,W,,,,,,,,
218,AUSTIN FARM POND,TROUT POND,RI04121,,,-71.66745763,41.59354783,WASHINGTON,EXETER,ROARING BROOK,,P,,EARTH,200,8,8,,,35,6.5,,10,12,4,1,162,,100,LOW,,LOW,RIDEM 2006,,Y,Y,N,Y,N,SMALL,Y,W,,,,,EXETER,0,N,
219,BOONE LAKE,,RI01103,,,-71.67799372,41.58201219,WASHINGTON,EXETER,ROARING BROOK,1885,R,,"MASONRY,GRAVITY,EARTH",265,,21,18,16,72,19,1.5,295,360,47,2,472,348,358,LOW,,HIGH,GZA 2004,,Y,Y,Y,Y,Y,SMALL,Y,DS,,,,,EXETER,0,N,
220,BARBERVILLE MILL POND,,RI04122,,,-71.68112942,41.56049348,WASHINGTON,EXETER,ROARING BROOK,,R,,EARTH,300,6,5,5,3,10,3,2,8,12,4,5,100,0,535,LOW,,LOW,RIDEM 2006,,Y,Y,N,N,N,SMALL,N,W,,,,,EXETER,0,N,
221,BROWNING MILL POND,ACADIA POND,RI01104,,,-71.69290925,41.55834581,WASHINGTON,EXETER,ROARING BROOK,1885,FR,,"EARTH,MASONRY",800,12,11,13,10,63,10,4.7,160,260,46,6,2250,105,559,LOW,,HIGH,GZA MAP 2008,,Y,Y,Y,Y,Y,SMALL,Y,DS,,,,,HOPKINTON,1,N,Y
222,MOSCOW POND,,,,,0,0,,HOPKINTON,MOSCOW BROOK,0,,,,0,,,0,,,,,0,0,0,0,0,,,LOW,,LOW,RIDEM 2006,,,Y,N,N,N,,,W,,,,,,,,
223,CENTERVILLE POND,,RI04187,,,-71.74738314,41.52271272,WASHINGTON,HOPKINTON,MOSCOW BROOK,1846,O,,"EARTH,CONCRETE,MASONRY",360,20,13,14,10,42,10,2,10,14,2,6,420,176,560,LOW,,LOW,GZA 2007,,Y,Y,N,Y,N,SMALL,Y,W,,,,,HOPKINTON,2,N,
224,ROCKVILLE POND,,RI04188,,,-71.75774386,41.52070617,WASHINGTON,HOPKINTON,MOSCOW BROOK,,O,,"EARTH,MASONRY",740,8,8,8,4,14,4.5,2.4,10,15,3,3,175,120,439,LOW,,LOW,RIDEM 2006,,Y,Y,N,Y,N,SMALL,Y,W,,,,,HOPKINTON,3,N,
225,WINCHECK POND,,RI01402,,,-71.76230622,41.52031327,WASHINGTON,HOPKINTON,MOSCOW BROOK,1885,R,,"GRAVITY,EARTH",190,8,8,9,8,21,8,1.5,480,650,150,3,135,348,362,LOW,,SIGNIFICANT,GZA MAP 2008,,Y,Y,Y,Y,Y,SMALL,Y,DS,,,,,HOPKINTON,0,N,
226,YAWGOOG POND,,RI01403,,,-71.78054581,41.5170951,WASHINGTON,HOPKINTON,WINCHECK BROOK,1885,R,,"EARTH,ROCKFILL",250,,14,17,14,9,14,2,924,990,150,2,175,175,256,LOW,,HIGH,GZA 2004,,Y,Y,Y,Y,Y,SMALL,Y,DS,,,,,HOPKINTON,1,N,
227,ASHVILLE POND,,RI01404,,,-71.75112154,41.49976351,WASHINGTON,HOPKINTON,BLUE POND BROOK,1885,R,,"ROCKFILL,EARTH",250,11,9,10,9,4,9,3,116,150,32,0,288,288,72,LOW,,SIGNIFICANT,GZA MAP 2008,,Y,Y,Y,Y,Y,SMALL,Y,DS,,,,,HOPKINTON,1,N,
228,LOWER MILL POND,,RI04189,,,-71.74923707,41.492733,WASHINGTON,HOPKINTON,BLUE POND BROOK,1889,O,,"EARTH,MASONRY",290,14,7,8,4,9,4.5,0.5,6,7,2,4,99,218,456,LOW,,LOW,RIDEM 2006,,Y,Y,N,Y,N,SMALL,Y,W,,,,,HOPKINTON,0,N,
229,BLUE POND,,RI01405,,,-71.74725341,41.50568773,WASHINGTON,HOPKINTON,BLUE POND BROOK,1885,FR,,"GRAVITY,EARTH",1000,9,13,13,12,6,12,2,440,550,92,2,78,0,225,LOW,,SIGNIFICANT,GZA 2007,,Y,Y,Y,Y,Y,SMALL,Y,DS,,,,,HOPKINTON,1,N,
230,DECAPPETT POND,,RI04284,,,-71.64060208,41.52132798,WASHINGTON,RICHMOND,BEAVER RIVER,,O,,EARTH,,6,5,5,,,,,3,4,1,6,,,564,LOW,,LOW,RIDEM 2006,,Y,Y,N,N,N,SMALL,N,W,,,,,RICHMOND,0,N,
231,JAMES POND,,RI01105,,,-71.64144901,41.57463072,WASHINGTON,EXETER,BEAVER RIVER,1885,O,,"ROCKFILL,EARTH",380,6,9,9,7,10,7,2,86,106,24,1,60,0,204,LOW,,LOW,RIDEM 2006,,Y,Y,N,Y,N,SMALL,Y,W,,,,,EXETER,0,N,
232,TUG HOLLOW POND,,RI04285,,,-71.64636989,41.5599327,WASHINGTON,RICHMOND,BEAVER RIVER,,P,,"EARTH,CONCRETE,MASONRY",170,8.5,9,9,6,10,6.5,2,5,7,2,2,92,0,330,LOW,,LOW,RIDEM 2006,,Y,Y,N,N,N,SMALL,N,W,,,,,RICHMOND,0,N,
233,GLEN ROCK LOWER POND,,RI04341,,,-71.60660556,41.51663972,WASHINGTON,SOUTH KINGSTOWN,GLEN ROCK BROOK,,O,,"EARTH,ROCKFILL",140,12.5,9,10,5,30,5.2,3.5,2,5,1,3,773,5,405,LOW,,LOW,GZA 2007 & RIDEM 2008,,Y,Y,N,Y,N,SMALL,Y,W,,,,,SOUTH KINGSTOWN,0,N,
234,GLEN ROCK MIDDLE POND,,RI04340,,,-71.6070251,41.51834869,WASHINGTON,SOUTH KINGSTOWN,GLEN ROCK BROOK,,O,,"EARTH,MASONRY",100,15,8,8,6,10,6,2,4,5,1,3,90,0,405,LOW,,LOW,GZA 2007 & RIDEM 2008,,Y,Y,N,Y,N,SMALL,Y,W,,,,,SOUTH KINGSTOWN,0,N,
235,GLEN ROCK UPPER POND,,RI04339,,,-71.60751339,41.51925277,WASHINGTON,SOUTH KINGSTOWN,GLEN ROCK BROOK,,O,,EARTH,100,7,8,8,6,12,6,2,12,15,4,3,100,0,405,LOW,,LOW,GZA 2007 & RIDEM 2008,,Y,Y,N,Y,N,SMALL,Y,W,,,,,SOUTH KINGSTOWN,0,N,
236,GLEN ROCK RESERVOIR,USQUEPAUG,RI03203,,,-71.60816958,41.50386046,WASHINGTON,SOUTH KINGSTOWN,USQUEPAUG RIVER,1860,OR,,"ROCKFILL,EARTH",300,8.5,7,8,7,106,6,1,110,125,15,33,371,335,1202,LOW,,SIGNIFICANT,GZA MAP 2008 & MARCH 2010 RAIN,,Y,Y,N,Y,N,SMALL,Y,W,,,,,SOUTH KINGSTOWN,0,N,
237,RODMAN SAWMILL POND,,RI04560,,,-71.54626,41.59767,WASHINGTON,EXETER,QUEEN RIVER,2001,,,EARTH,0,,0,0,0,,,,0,0,0,0,0,,,LOW,,LOW,RIDEM 2006,,UNK,Y,N,N,N,SMALL,,W,,,,,NORTH KINGSTOWN,,N,
238,EDWARD'S POND,EXETER HOLLOW POND,RI04123,,,-71.54112243,41.58156205,WASHINGTON,EXETER,QUEEN RIVER,,,,,440,7,9.3,,,33,7.7,1.6,10,16,4,2,245,70,275,LOW,,SIGNIFICANT,GZA MAP 2008,,Y,Y,Y,Y,Y,SMALL,Y,DS,,,,,EXETER,0,N,
239,SLOCUM RESERVOIR,THE RESERVOIR,RI01108,,,-71.52001185,41.539917,WASHINGTON,EXETER,CHIPUXET RIVER,1855,R,,"ROCKFILL,MASONRY,EARTH",220,8,8,8,7,38,6,1.6,60,70,18,2,281,50,348,LOW,,HIGH,GZA MAP 2008,,Y,Y,Y,Y,Y,SMALL,Y,DS,,,,,EXETER,1,N,
240,YORKER MILL POND,SLOCUM DAM / YAWGOO MILL POND,RI01109,,,-71.52324576,41.52170647,WASHINGTON,EXETER,CHIPUXET RIVER,1855,OR,,"ROCKFILL,EARTH",350,,12,12,10,34,10,1.5,84,100,14,4,236,236,462,LOW,,HIGH,GZA 2004,,Y,Y,Y,Y,Y,SMALL,Y,DS,,,,,EXETER,1,N,
241,GRINNELL UPPER POND,,RI04124,,,-71.57074734,41.58531191,WASHINGTON,EXETER,FISHERSVILLE BROOK,,,,,,7,7,,,19,4,2.9,15,30,5,4,361,,484,LOW,,LOW,RIDEM 2006,,Y,Y,N,Y,N,SMALL,Y,W,,,,,EXETER,0,N,
242,GRINNELL LOWER POND,,RI04125,,,-71.57093049,41.58127592,WASHINGTON,EXETER,FISHERSVILLE BROOK,,,,,75,8,8.8,8,6,27,6.5,2.3,9,15,3,4,365,,494,LOW,,LOW,RIDEM 2006,,Y,Y,N,Y,N,SMALL,Y,W,,,,,EXETER,0,N,
243,DOLLY POND,FISHERSVILLE POND,RI04126,,,-71.57492828,41.56591032,WASHINGTON,EXETER,SODOM BROOK,,R,,EARTH,270,7.5,9,9,8,16,7.8,1.5,35,50,9,2,91,10,247,LOW,,LOW,RIDEM 2006,,Y,Y,N,N,N,SMALL,N,W,,,,,EXETER,0,N,
244,SHERMAN SHINGLE MILL POND,,RI04127,,,-71.60458372,41.56001663,WASHINGTON,EXETER,LOCKE BROOK,,O,,"EARTH,ROCKFILL",150,10,6,6,4,6,4,1.5,2,3,0,1,40,0,204,LOW,,LOW,RIDEM 2006,,Y,Y,N,Y,N,SMALL,Y,W,,,,,EXETER,0,N,
245,HOPE VALLEY MILL POND,MECHANIC ST; OLD STONE,RI04190,,,-71.71633912,41.50313188,WASHINGTON,HOPKINTON / RICHMOND,WOOD RIVER,1750,FR,,"EARTH,MASONRY,CONCRETE",140,14,15,15,12,94,12,3.2,31,47,9,73,2190,,1966,LOW,,LOW,GZA MAP 2008 & RIDEM 2008,,Y,Y,Y,Y,Y,SMALL,Y,DS,,,,,HOPKINTON,0,N,
246,WOODVILLE POND,,RI01406,,,-71.71895602,41.4599495,WASHINGTON,HOPKINTON / RICHMONE,WOOD RIVER,1933,R,,"ROCKFILL,EARTH",178,8,10,12,9,83,7,2.4,97,150,27,85,1104,66,2175,LOW,,LOW,RIDEM 2006,,Y,Y,N,N,N,SMALL,N,W,,,,,HOPKINTON,0,N,
247,ALTON POND,WOOD RIVER POND,RI01407,,,-71.7214966,41.43777466,WASHINGTON,HOPKINTON / RICHMOND,WOOD RIVER,1920,OR,,"ROCKFILL,EARTH",550,,19,18,15,113,12,6,318,424,53,87,5630,567,2180,LOW,,SIGNIFICANT,GZA 2004,,Y,Y,Y,Y,Y,SMALL,Y,DS,,,,,RICHMOND,0,N,
248,KENYON MILL POND,,RI04286,,,-71.62580869,41.44577406,WASHINGTON,CHARLESTOWN / RICHMOND,PAWCATUCK RIVER,,O,,"EARTH,MASONRY",395,9,8,8,7,100,7,1,31,36,9,80,300,0,1043,LOW,,LOW,RIDEM 2006,,Y,Y,N,Y,N,SMALL,Y,W,,,,,RICHMOND,0,N,
249,HORSESHOE FALLS,SHANNOCK,RI02901,,,-71.63639835,41.44766234,WASHINGTON,CHARLESTOWN / RICHMOND,PAWCATUCK RIVER,1885,O,,"ROCKFILL,MASONRY,EARTH",121,,13,13,10,97,16,2,196,207,12,93,1067,100,1159,LOW,,SIGNIFICANT,GZA 2004,,Y,Y,Y,Y,Y,SMALL,Y,DS,,,,,RICHMOND,0,N,
251,BURDICKVILLE,,RI04573,,,-71.72915,41.41703,WASHINGTON,CHARLESTOWN/HOPKINTON,PAWCATUCK RIVER,,,,,0,,,0,,,,,0,0,0,0,0,,,LOW,,LOW,RIDEM 2006,,UNK,Y,N,N,N,,N,W,,,,,,,N,
252,CAROLINA POND,,RI04027,,,-71.66358953,41.45886231,WASHINGTON,CHARLESTOWN / RICHMOND,PAWCATUCK RIVER,1840,O,,"EARTH,MASONRY",380,8,10,11,8,184,7,2,85,108,12,97,1640,336,2415,LOW,,LOW,RIDEM 2006,,Y,Y,N,N,N,SMALL,N,W,,,,,CHARLESTOWN,0,N,
253,BRADFORD POND,,RI04374,,,-71.74940492,41.40752412,WASHINGTON,HOPKINTON / WESTERLY,PAWCATUCK RIVER,,O,,"EARTH,CONCRETE",200,9,9.5,10,6,80,6,2,40,48,14,219,,1100,4386,LOW,,LOW,RIDEM 2006,,Y,Y,N,Y,N,SMALL,Y,W,,,,,WESTERLY,0,N,
254,POTTER HILL,,RI01409,,,-71.79693606,41.41405105,WASHINGTON,HOPKINTON,PAWCATUCK RIVER,1903,O,,"EARTH,MASONRY",112,9.5,10,11,8,81,8,5.5,204,280,36,204,5457,386,4688,LOW,,LOW,RIDEM 2006,,Y,Y,N,N,N,SMALL,,W,,,,HOPKINTON,,,,
256,STILLMANVILLE,,RI04574,,,-71.83307,41.38498,WASHINGTON,WESTERLY / CT,PAWCATUCK RIVER,,,,,0,,,0,,,,,0,0,0,0,0,,,LOW,,LOW,RIDEM 2006,,UNK,Y,N,N,N,,N,W,,,,,,,N,
259,LILLIBRIDGE POND,,RI04288,,,-71.66459659,41.49417496,WASHINGTON,RICHMOND,WHITE BROOK,,O,,EARTH,100,,4,4,3,,3,,4,5,3,2,,0,179,LOW,,LOW,RIDEM 2006,,N,Y,N,N,N,SMALL,N,W,,,,,RICHMOND,0,N,
260,WELLS POND,,RI04289,,,-71.67244717,41.47795103,WASHINGTON,RICHMOND,WHITE BROOK-TRIB,,F,,EARTH,100,6,6,6,4,,4,,12,18,6,1,,0,200,LOW,,LOW,RIDEM 2006,,Y,Y,N,Y,N,SMALL,Y,W,,,,,RICHMOND,0,N,
261,WHITE'S POND,,RI04290,,,-71.66939549,41.47037886,WASHINGTON,RICHMOND,WHITE BROOK,,F,,EARTH,100,7,8,8,6,,6,,9,12,3,2,,,187,LOW,,HIGH,GZA MAP 2008,,Y,Y,Y,Y,Y,SMALL,Y,DS,,,,,RICHMOND,0,N,
262,LOCUSTVILLE POND,,RI01408,,,-71.71644591,41.50851442,WASHINGTON,HOPKINTON,BRUSHY BROOK,1885,RH,,"OTHER,EARTH",285,,15,18,18,98,14,3,530,625,83,11,1497,423,2822,SIGNIFICANT,,HIGH,ACOE 1981 & GZA UMAP 2008,,Y,Y,Y,Y,Y,SMALL,Y,DS,,,,,HOPKINTON,0,N,
264,BETHEL POND,,RI04192,,,-71.79023744,41.4307785,WASHINGTON,HOPKINTON,ASHAWAY RIVER,,O,,"EARTH,MASONRY",240,12,11,11,6,37,6,4.5,38,66,11,29,1476,570,1117,LOW,,LOW,RIDEM 2006,,Y,Y,N,N,N,SMALL,N,W,,,,,HOPKINTON,0,N,
265,ASHAWAY MILL POND,,RI04193,,,-71.7897,41.42481,WASHINGTON,HOPKINTON,ASHAWAY RIVER,1816,O,,"EARTH,MASONRY",400,6,12,12,6,34,6.5,5,17,30,5,30,1530,900,1125,LOW,,LOW,RIDEM 2006,,Y,Y,N,N,N,SMALL,N,W,,,,,HOPKINTON,0,N,
266,ASHAWAY LINE POND,ASHAWAY LINE & TWINE,RI04194,,,-71.79219053,41.4234314,WASHINGTON,HOPKINTON,ASHAWAY RIVER,1838,O,,"EARTH,CONCRETE",150,8,8,8,4,52,4.2,3.5,6,9,2,30,2028,,1125,LOW,,LOW,RIDEM 2006,,Y,Y,N,N,N,SMALL,N,W,,,,,HOPKINTON,0,N,
272,SMITH'S ICE POND,,RI04195,,,-71.78200531,41.46245577,WASHINGTON,HOPKINTON,PARMENTER BROOK,,O,,EARTH,100,4,7,7,2,3.5,2.5,5,2,2,1,1,130,0,154,LOW,,LOW,RIDEM 2006,,Y,Y,N,N,N,SMALL,N,W,,,,,HOPKINTON,0,N,
273,WOOD RIVER JUNCTION,MEADOWBROOK POND,RI02902,,,-71.69108577,41.43787383,WASHINGTON,RICHMOND,MEADOW BROOK,1860,R,,"EARTH,ROCKFILL,CONCRETE",520,11.5,10,10,7,5.8,7,3.1,36,60,17,6,480,30,566,LOW,,SIGNIFICANT,GZA MAP 2008,,Y,Y,Y,Y,Y,SMALL,Y,DS,,,,,RICHMOND,3,N,
274,HARRIS POND,,RI04197,,,-71.7559128,41.46131133,WASHINGTON,HOPKINTON,TOMAQUAG BROOK-TRIB,,,,,900,11,5,5,4,12,,,2,3,19,1,,,,LOW,,SIGNIFICANT,GZA MAP 2008,,Y,Y,Y,Y,Y,SMALL,Y,DS,,,,,HOPKINTON,0,N,
275,LINEWALK POND,,RI04198,,,-71.75670626,41.48368454,WASHINGTON,HOPKINTON,CANONCHET BROOK,,,,,,4,7,7,5,,,,7,10,3,,,,,LOW,,LOW,RIDEM 2006,,Y,Y,N,Y,N,SMALL,Y,W,,,,,HOPKINTON,0,N,
276,KNAPP POND,,RI04199,,,-71.79592132,41.42380525,WASHINGTON,HOPKINTON,KNAPP BROOK,,O,,EARTH,100,5.5,8,8,6,6,6,2,15,20,5,0,60,0,72,LOW,,LOW,RIDEM 2006,,Y,Y,N,Y,N,SMALL,Y,W,,,,,HOPKINTON,0,N,
278,BISCUIT CITY POND,,RI04337,,,-71.53445438,41.47481156,WASHINGTON,SOUTH KINGSTOWN,WHITE HORN BROOK,,O,,EARTH,100,8,6,6,4,,6,2,3,4,1,3,,,300,LOW,,LOW,RIDEM 2006,,Y,Y,N,Y,N,SMALL,Y,W,,,,,SOUTH KINGSTOWN,0,N,
279,INDIAN CEDAR SWAMP,WANNASEWAQUOT,RI04028,,,-71.66471863,41.43037414,WASHINGTON,CHARLESTOWN,CEDAR SWAMP BROOK,,,,,150,6,6,,,4,4.5,1.5,28,35,7,2,104,,240,LOW,,LOW,RIDEM 2006,,Y,Y,N,Y,N,SMALL,Y,W,,,,,CHARLESTOWN,0,N,
280,TANNER POND,,RI04291,,,-71.67168421,41.46389008,WASHINGTON,RICHMOND,WHITE BROOK,,F,,"EARTH,MASONRY",90,7,6.5,6,4,6,4.5,2,13,19,6,3,60,286,369,LOW,,LOW,RIDEM 2006,,Y,Y,N,N,N,SMALL,N,W,,,,,RICHMOND,0,N,
281,CAPWELL MILL POND,,RI04228,,,-71.60762791,41.64339065,KENT,WEST GREENWICH,CARR RIVER,,R,,"EARTH,MASONRY",150,7.5,7,8,6,35,6,1.5,32,48,16,7,,0,,LOW,,LOW,GZA MAP 2008 & RIDEM 2008 (RIDEM 2007-SIG),,Y,Y,N,Y,N,SMALL,Y,W,,,,,WEST GREENWICH,0,N,
285,LANGWORTHY POND,,RI04200,,,-71.71837617,41.50828552,WASHINGTON,HOPKINTON,BRUSHY BROOK-TRIB,,O,,"EARTH,MASONRY",130,7,9,9,8,13.7,8.1,0.9,2,3,1,0,35,,38,LOW,,SIGNIFICANT,GZA MAP 2008,,Y,Y,Y,Y,Y,SMALL,Y,DS,,,,,HOPKINTON,0,N,
286,PINEDALE MILL POND,,RI04201,,,-71.73725123,41.52708053,WASHINGTON,HOPKINTON,MOSCOW BROOK,,O,,"EARTH,MASONRY",,,20,20,,,,,,,,,,,,LOW,,LOW,RIDEM 2006,,Y,Y,N,Y,N,,Y,W,,,,,HOPKINTON,0,N,
287,LONG POND,,RI01410,,,-71.76535033,41.50665665,WASHINGTON,HOPKINTON,BLUE POND BROOK,1885,O,,"GRAVITY,EARTH",230,9.5,9,10,7,2,7,2,62,79,22,1,73,73,126,LOW,,LOW,RIDEM 2006,,Y,Y,N,Y,N,SMALL,Y,W,,,,,HOPKINTON,1,N,
288,UNION POND,,RI04202,,,-71.74849702,41.49061584,WASHINGTON,HOPKINTON,BLUE POND BROOK,,O,,"EARTH,MASONRY,CONCRETE",160,8,5.6,6,4,32,4.2,0.4,9,10,3,4,25,69,491,LOW,,LOW,RIDEM 2006,,Y,Y,N,N,N,SMALL,N,W,,,,,HOPKINTON,0,N,
289,GRASSY,,,,,0,0,,HOPKINTON,WINCHECK POND-TRIB,0,,,,0,,,0,,,,,0,0,0,0,0,,,LOW,,LOW,RIDEM 2006,,,Y,N,,N,,,W,,,,,,,,
290,YAWGOO POND,,RI04336,,,-71.56903844,41.50724794,WASHINGTON,SOUTH KINGSTOWN,CHICKSHEEN BROOK,,O,,"EARTH,CONCRETE",,3,,,3,3,3,1,340,400,136,2,,,291,LOW,,LOW,RIDEM 2006,,Y,Y,N,N,N,SMALL,N,W,,,,,SOUTH KINGSTOWN,0,N,
293,LEBANON MILL,,RI04575,,,-71.34078,41.88968,PROVIDENCE,PAWTUCKET,TEN MILE RIVER,,,,,0,,,0,,,,,0,0,0,0,0,,,LOW,,LOW,RIDEM 2006,,UNK,Y,N,N,N,,,W,,,,,,,N,
294,TEN MILE RESERVATION,,RI02601,,,-71.34090419,41.87455749,PROVIDENCE,PAWTUCKET,TEN MILE RIVER,1926,R,,"EARTH,GRAVITY,CONCRETE",175,4,10,11,7,125,5,5,90,140,32,45,3680,43,1700,LOW,,LOW,GZA MAP 2008,,Y,Y,N,Y,N,SMALL,Y,W,,,,,PAWTUCKET,1,N,
295,LIMEROCK RESERVOIR,,RI04243,,,-71.46809384,41.92950059,PROVIDENCE,LINCOLN,MOSHASSUCK RIVER,,O,,"EARTH,ROCKFILL",200,,28,28,20,6,20,2,180,210,15,1,380,0,590,LOW,,HIGH,GZA 2004,,Y,Y,Y,Y,Y,SMALL,Y,DS,,,,,LINCOLN,0,N,
296,OLD FORGE MILL POND,,RI04388,,,-71.44510757,41.64123075,WASHINGTON,WARWICK / NORTH KINGSTOWN,POTOWOMUT RIVER,1700,R,,MASONRY,80,,8,8,5,62,5,3.8,11,25,5,23,1500,50,1300,LOW,,LOW,RIDEM 2006,,Y,Y,N,Y,N,SMALL,Y,W,,,,,NORTH KINGSTOWN,1,N,
297,ARNOLD MILL POND,WHIPPLE,RI04095,,,-71.3927689,41.97980882,PROVIDENCE,CUMBERLAND,ABBOTT RUN,,O,,"EARTH,MASONRY",150,,8,8,6,75,6,2.5,10,13,3,18,1040,0,1744,LOW,,LOW,RIDEM 2006,,Y,Y,N,Y,N,SMALL,Y,W,,,,,CUMBERLAND,0,N,
298,JENKESVILLE POND UPPER,,RI04378,,,-71.49837498,42.01514816,PROVIDENCE,WOONSOCKET,PETERS RIVER,,O,,"EARTH,CONCRETE",80,,7,7,5,60,5,2,7,9,3,11,,,900,LOW,,LOW,RIDEM 2006,,Y,Y,N,Y,N,SMALL,Y,W,,,,,WOONSOCKET,0,N,
300,CUNLIFF POND,ELM LAKE / ROGER WILLIAMS PARK,RI02802,,,-71.4125824,41.77378845,PROVIDENCE,PROVIDENCE,MASHAPAUG BROOK,1885,R,,"GRAVITY,EARTH",20,9.5,12,12,10,8,10,2,140,168,35,5,80,0,560,LOW,,SIGNIFICANT,GZA 2007,,Y,Y,Y,Y,Y,SMALL,Y,DS,,,,,PROVIDENCE,0,N,
302,SILVER HOOK,,RI04576,,,-71.42009,41.76134,KENT,WARWICK,PAWTUXET RIVER,,,,,0,,,0,,,,,0,0,0,0,0,,,LOW,,LOW,RIDEM 2006,,UNK,Y,N,N,N,,,W,,,,,,,N,
303,PETTACONSETT,,RI04577,,,-71.44527,41.75091,PROVIDENCE/KENT,CRANSTON/WARWICK,PAWRUXET RIVER,,,,,0,,,0,,,,,0,0,0,0,0,,,LOW,,LOW,RIDEM 2006,,UNK,Y,N,N,N,,,W,,,,,,,N,
305,STATE PRISON UPPER,,RI04578,,,-71.45408,41.74909,PROVIDENCE,CRANSTON,PRISON BROOK,,,,,0,,,0,,,,,0,0,0,0,0,,,LOW,,LOW,RIDEM 2006,,UNK,Y,N,N,N,,,W,,,,,,,N,
307,SAMPSON-ALMY POND,,RI04216,,,-71.49157983,41.81108077,PROVIDENCE,JOHNSTON,POCASSET RIVER-TRIB,,O,,"EARTH,MASONRY",200,5,6,6,6,10,5.5,0.5,22,27,9,5,12,0,400,LOW,,LOW,RIDEM 2006,,Y,Y,N,Y,N,SMALL,Y,W,,,,,JOHNSTON,0,N,
310,POCASSET POND,,RI04218,,,-71.50646211,41.82574082,PROVIDENCE,JOHNSTON,POCASSET RIVER,1951,O,,EARTH,170,9,8.5,8,5,24,4.7,2.3,13,15,5,3,297,125,374,LOW,,SIGNIFICANT,GZA MAP 2008,DEM CONSIDERS ROAD D/S OF DAM,Y,Y,Y,Y,Y,SMALL,Y,DS,,,,,JOHNSTON,0,N,
311,BROWN SAWMILL POND,,RI04219,,,-71.5314102,41.83789059,PROVIDENCE,JOHNSTON,POCASSET RIVER,,O,,"EARTH,ROCKFILL",12,2,3,3,2,3,2.5,1,2,3,1,1,10,0,130,LOW,,LOW,RIDEM 2006,,N,Y,N,N,N,SMALL,N,W,,,,,JOHNSTON,0,N,
312,HUGHESDALE POND LOWER,,RI04220,,,-71.49676512,41.80722425,PROVIDENCE,JOHNSTON,DRY BROOK,1820,O,,"EARTH,MASONRY",250,,13.5,14,12,53,12,1.2,6,7,1,3,240,86,390,LOW,,LOW,RIDEM 2006,,Y,Y,N,Y,N,SMALL,Y,W,,,,,JOHNSTON,0,N,
313,HUGHESDALE POND UPPER,,RI04221,,,-71.50185396,41.80725481,PROVIDENCE,JOHNSTON,DRY BROOK,,O,,"EARTH,MASONRY",200,,21.8,22,20,34,20,1.8,50,55,5,3,290,0,400,LOW,,HIGH,GZA 2004,,Y,Y,Y,Y,Y,SMALL,Y,DS,,,,,JOHNSTON,0,N,
314,PIERCE UPPER,,RI04579,,,-71.50812,41.7965,PROVIDENCE,JOHNSTON,SIMMONS BROOK,,,,,0,,,0,,,,,0,0,0,0,0,,,LOW,,LOW,RIDEM 2006,,UNK,Y,N,N,N,,,W,,,,,,,N,
315,PIERCE POND  LOWER,,RI04222,,,-71.50681306,41.79751588,PROVIDENCE,JOHNSTON,SIMMONS BROOK,,O,,"EARTH,MASONRY",200,15,8,8,6,,,,3,4,1,5,,,,LOW,,LOW,RIDEM 2006,,Y,Y,N,Y,N,SMALL,Y,W,,,,,JOHNSTON,0,N,
317,VICTORIA MILL,,RI04581,,,-71.49082,41.79533,PROVIDENCE,JOHNSTON,SIMMONS BROOK,,,,,0,12,,0,,,,,0,0,0,0,0,,,LOW,,LOW,RIDEM 2006,,Y,Y,N,N,N,,,W,,,,,,,N,
319,PRISCILLA WORSTED,,RI04582,,,-71.48678,41.79635,PROVIDENCE,JOHNSTON,SIMMONS BROOK,,,,,0,,,0,,,,,0,0,0,0,0,,,LOW,,LOW,RIDEM 2006,,UNK,Y,N,N,N,,,W,,,,,,,N,
320,STONE POND,,RI04073,,,-71.48957059,41.79079436,PROVIDENCE,CRANSTON,FENNER BROOK,,R,,"EARTH,MASONRY,CONCRETE",200,10,8,8,6,12,5,2,25,34,8,0,110,,40,LOW,,HIGH,GZA 2007,,Y,Y,Y,Y,Y,SMALL,Y,DS,,,,,CRANSTON,0,N,
323,CAESARVILLE POND,,RI04224,,,-71.4874954,41.84579082,PROVIDENCE,JOHNSTON,ASSAPUMPSET BROOK,,O,,"EARTH,CONCRETE",,7,5.8,6,3,30,3,3,8,15,5,2,505,505,450,LOW,,SIGNIFICANT,GZA 2007,,Y,Y,Y,Y,Y,SMALL,Y,DS,,,,,JOHNSTON,0,N,
328,ROBIN HOLLOW POND,,RI04365,,,-71.64951322,41.61879348,KENT,WEST GREENWICH,RACCOON BROOK,,R,,"EARTH,MASONRY",280,9,5,5,3,27,3,2,4,5,3,2,160,,200,LOW,,LOW,RIDEM 2006,,Y,Y,N,N,N,SMALL,N,W,,,,,WEST GREENWICH,0,N,
329,BURTON POND,WILBUR POND,RI04258,,,-71.6356277,41.76456071,PROVIDENCE,SCITUATE,WILBUR HOLLOW BROOK,,O,,"EARTH,MASONRY",250,7,7,7,5,,,,7,9,3,,,,,LOW,,LOW,RIDEM 2006,,Y,Y,N,Y,N,SMALL,Y,W,,,,,SCITUATE,0,N,
330,POTTERVILLE POND,,RI04294,,,-71.65436556,41.7550316,PROVIDENCE,SCITUATE,WILBUR HOLLOW BROOK,,S,,"EARTH,MASONRY",100,8,5.5,6,3,,3,0.5,4,5,2,,,0,,LOW,,LOW,RIDEM 2006,,Y,Y,N,N,N,SMALL,N,W,,,,,SCITUATE,0,N,
331,POTTER POND,,RI04295,,,-71.66276549,41.75573729,PROVIDENCE,SCITUATE,WILBUR HOLLOW BROOK,,O,,"EARTH,MASONRY",100,,5.5,6,4,,4,,4,5,2,,,,,LOW,,LOW,RIDEM 2006,,N,Y,N,N,N,SMALL,N,W,,,,,SCITUATE,0,N,
332,ABNER'S POND,,RI04296,,,-71.6673202,41.75533296,PROVIDENCE,SCITUATE,WILBUR HOLLOW BROOK,,O,,"EARTH,MASONRY",120,,16,16,14,3,14,1.5,28,32,4,,20,,,LOW,,LOW,RIDEM 2006,,Y,Y,N,Y,N,SMALL,Y,W,,,,,SCITUATE,0,N,
335,ARROW LAKE #1,,RI04076,,,-71.49440007,41.78420638,PROVIDENCE,CRANSTON,MESHANTICUT BROOK,,,,,190,3.5,,,,,,,,,,,,,,LOW,,LOW,RIDEM 2006,,UNK,Y,N,N,N,SMALL,,W,,,,,CRANSTON,1,N,
336,ARROW LAKE #2,,RI04077,,,-71.48986817,41.77998732,PROVIDENCE,CRANSTON,MESHANTICUT BROOK,,,,,150,7,,,,8,,,9,12,3,0,25,,,LOW,,LOW,RIDEM 2006,,Y,Y,N,N,N,SMALL,,W,,,,,CRANSTON,1,N,
337,R.I. PRINTWORKS POND,,RI04078,,,-71.48696902,41.77994535,PROVIDENCE,CRANSTON,MESHANTICUT BROOK,1951,,,,40,2.5,,,,16,3,,0,2,0,0,185,,74,LOW,,LOW,RIDEM 2006,,N,Y,N,N,N,SMALL,,W,,,,,CRANSTON,1,N,
338,COLVIN POND,,RI04079,,,-71.48432924,41.77956391,PROVIDENCE,CRANSTON,MESHANTICUT BROOK,,,,,120,11,8,,,,,,,,,,,,,LOW,,LOW,RIDEM 2006,,Y,Y,N,Y,N,SMALL,Y,W,,,,,CRANSTON,0,N,
340,MESHANTICUT PARK POND,MESHANTICUT POND,RI04081,,,-71.47830202,41.76779557,PROVIDENCE,CRANSTON,MESHANTICUT BROOK,,R,,"EARTH,MASONRY",90,9,8,8,6,7,5,1.3,35,50,9,0,38,0,40,LOW,,SIGNIFICANT,GZA 2007,,Y,Y,Y,Y,Y,SMALL,Y,DS,,,,,CRANSTON,0,N,
341,SARGENT'S POND,,RI04082,,,-71.49806208,41.75708388,PROVIDENCE,CRANSTON,FURNACE HILL BROOK,,O,,CONCRETE,30,,5,5,3,2,2,,2,3,0,,,,,LOW,,LOW,RIDEM 2006,,N,Y,N,N,N,SMALL,N,W,,,,,CRANSTON,0,N,
342,POWERS POND,,RI04083,,,-71.50942232,41.75491335,PROVIDENCE,CRANSTON,FURNACE HILL BROOK,,O,,"EARTH,MASONRY",50,11,5,5,3,10,1,,2,2,0,,,,,LOW,,LOW,RIDEM 2006,,Y,Y,N,N,N,SMALL,N,W,,,,,CRANSTON,0,N,
343,WOOD'S MILL POND,,RI04084,,,-71.53322596,41.77128219,PROVIDENCE,CRANSTON,FURNACE HILL BROOK,,,,,210,8.5,,,,,,,,,,,,,,LOW,,LOW,RIDEM 2006,,Y,Y,N,N,N,SMALL,,W,,,,,CRANSTON,0,N,
344,PEABODY RESERVOIR LOWER,,RI04297,,,-71.66779328,41.78525544,PROVIDENCE,SCITUATE,WESTCONNAUG BROOK,,S,,"EARTH,MASONRY",300,19.5,18,18,16,,,,12,14,2,,220,,,LOW,,LOW,RIDEM 2006,,Y,Y,N,Y,N,SMALL,Y,W,,,,,SCITUATE,0,N,
345,JORDAN POND,CLAYVILLE POND,RI04298,,,-71.67464445,41.77767943,PROVIDENCE,SCITUATE,WESTCONNAUG BROOK,,S,Y,"EARTH,MASONRY",230,12,22,13,19,35,10,4,50,65,10,4,290,0,556,LOW,,SIGNIFICANT,GZA MAP 2008,,Y,Y,Y,Y,Y,SMALL,Y,DS,,,,,SCITUATE,0,N,
346,KIMBALL RESERVOIR,,RI01603,,,-71.56513209,41.83812332,PROVIDENCE,JOHNSTON,MOSWANSICUT BROOK,1924,S,Y,"MASONRY,GRAVITY,EARTH",400,,11,13,11,6.5,7,3,123,146,28,1,127,0,92,LOW,,SIGNIFICANT,GZA 2004,,Y,Y,Y,Y,Y,SMALL,Y,DS,,,,,SCITUATE,2,N,
347,YOUNG'S POND,SHIPPEE SAWMILL POND,RI04137,,,-71.75172425,41.8334618,PROVIDENCE,FOSTER,SHIPPEE BROOK,1825,FR,,EARTH,170,,9,9,8,10,7.5,2,15,20,7,2,193,0,,LOW,,LOW,GZA MAP 2008 & RIDEM 2008 (RIDEM 2007-SIG),,Y,Y,N,Y,N,SMALL,Y,W,,,,,FOSTER,0,N,
348,HUTCHINSON POND,,RI04138,,,-71.73714448,41.81782915,PROVIDENCE,FOSTER,PAINE BROOK,,P,,"EARTH,MASONRY",80,8.5,6,6,4,10,4.5,1.5,2,3,1,,60,,,LOW,,LOW,RIDEM 2006,,Y,Y,N,Y,N,SMALL,Y,W,,,,,FOSTER,0,N,
349,SPEAR POND,,RI04139,,,-71.72848512,41.80401991,PROVIDENCE,FOSTER,HEMLOCK BROOK,,P,,EARTH,100,10,11,5,3,,7.5,3.5,5,6,3,2,,,200,LOW,,HIGH,GZA MAP 2008,,Y,Y,Y,Y,Y,SMALL,Y,DS,,,,,FOSTER,0,N,
350,DUHALLOW POND,,RI04096,,,-71.39134978,42.00911716,PROVIDENCE,CUMBERLAND,BURNT SWAMP BROOK,,,,,75,2,8,,,,6,,7,8,5,,,,,LOW,,LOW,RIDEM 2006,,Y,Y,N,Y,N,SMALL,Y,W,,,,,CUMBERLAND,0,N,
351,PEEPTOAD POND,HARRISDALE POND,RI04299,,,-71.60604854,41.85277172,PROVIDENCE,SCITUATE,PEEPTOAD BROOK,,O,,"EARTH,CONCRETE",400,18,11,11,8,10,1,8,36,50,9,4,620,0,512,LOW,,SIGNIFICANT,RIDEM 20166 (GZA RPT FROM OWNER),,Y,Y,Y,Y,Y,SMALL,Y,DS,,,,,SCITUATE,0,N,
352,SANDY BROOK POND #1,,RI04164,,,-71.62327572,41.87390518,PROVIDENCE,GLOCESTER,PEEPTOAD BROOK,,O,,"EARTH,MASONRY",230,6,7,7,6,27,5.5,1.5,25,30,9,3,,0,350,LOW,,LOW,RIDEM 2006,,Y,Y,N,Y,N,SMALL,Y,W,,,,,GLOCESTER,0,N,
353,SANDY BROOK POND #2,,RI04165,,,-71.62132,41.8733,PROVIDENCE,GLOCESTER,PEEPTOAD BROOK,,,,,,7,6,6,4,,,,2,3,1,,,,,LOW,,LOW,RIDEM 2006,,Y,Y,N,Y,N,SMALL,Y,W,,,,,GLOCESTER,0,N,
354,COOMER LAKE,,RI01305,,,-71.62326048,41.87953187,PROVIDENCE,GLOCESTER,PEEPTOAD BROOK,1885,RS,Y,"ROCKFILL,EARTH",330,17,9,21,14,38,5,7,383,510,11,3,800,0,343,LOW,,SIGNIFICANT,RIDEM 2006 (CONFIRMED 2013 W/GZA 2009 RPT FROM OWNER),,Y,Y,Y,Y,Y,SMALL,Y,DS,,,,,GLOCESTER,3,N,
355,BRUSH MEADOW POND,,RI04300,,,-71.69006344,41.85197067,PROVIDENCE,FOSTER / SCITUATE,DOLLY COLE BROOK,,O,,"EARTH,MASONRY",100,6,4,4,4,20,3.5,3,16,18,9,1,300,0,150,LOW,,LOW,GZA MAP 2008 & RIDEM 2008 (RIDEM 2007-SIG),,Y,Y,N,Y,N,SMALL,Y,W,,,,,SCITUATE,0,N,
356,LILY POND,,RI04140,,,-71.68978883,41.84389118,PROVIDENCE,FOSTER,DOLLY BROOK,,O,,"EARTH,MASONRY",120,7.5,6,6,5,14,5,1,15,20,5,1,40,,,LOW,,LOW,GZA 2007,,Y,Y,N,Y,N,SMALL,Y,W,,,,,FOSTER,0,N,
357,HOPKINS AXE FACTORY POND,,RI04141,,,-71.6958313,41.83790204,PROVIDENCE,FOSTER,DOLLY COLE BROOK-TRIB,,O,,EARTH,,,,,,,,,,,29,,,,,LOW,,LOW,RIDEM 2006,,UNK,Y,N,N,N,SMALL,,W,,,,,FOSTER,0,N,
358,CRANSTON FISH & GAME ASSOC. POND,,RI04142,,,-71.69628148,41.8320732,PROVIDENCE,FOSTER,DOLLY COLE BROOK,,F,,"EARTH,MASONRY",25,6,4,4,3,4,4,1,25,35,13,2,,,,LOW,,LOW,RIDEM 2006,,Y,Y,N,Y,N,SMALL,Y,W,,,,,FOSTER,0,N,
360,HORSESHOE,NORTH SCITUATE HORSESHOE,RI03004,,,-71.59352877,41.83301924,PROVIDENCE,SCITUATE,PAWTUXET RIVER-NORTH BRANCH,1920,S,Y,"EARTH,ROCKFILL,CONCRETE",240,12,10,12,10,240,10,2.5,1314,1935,242,22,6000,130,1910,LOW,,SIGNIFICANT,GZA MAP 2008,,Y,Y,Y,Y,Y,MEDIUM,Y,DS,,,,,SCITUATE,0,N,
361,PINE SWAMP RESERVOIR #1,,RI04301,,,-71.57396702,41.81732555,PROVIDENCE,SCITUATE,BRANDY BROOK,,S,Y,"EARTH,MASONRY",50,8,8,,3,10,3,1,18,30,18,1,30,0,111,LOW,,SIGNIFICANT,GZA 2007,,Y,Y,Y,Y,Y,SMALL,Y,DS,,,,,SCITUATE,0,N,
362,PINE SWAMP RESERVOIR #2 (AUX TO #1),,RI04302,,,-71.57258603,41.82043077,PROVIDENCE,SCITUATE,UNNAMED STREAM,,S,,EARTH,,8,4,4,3,,,,18,30,18,1,,,111,LOW,,LOW,RIDEM 2006,,Y,Y,N,Y,N,SMALL,Y,W,,,,,SCITUATE,0,N,
363,DUCK POND,,RI04303,,,-71.56459046,41.80993272,PROVIDENCE,SCITUATE,BRANDY BROOK,,O,,"EARTH,CONCRETE",,7,4,4,3,,3,,2,3,1,0,,,23,LOW,,LOW,RIDEM 2006,,Y,Y,N,N,N,SMALL,N,W,,,,,SCITUATE,0,N,
364,MATHEWSON POND,,RI04304,,,-71.56999212,41.81057737,PROVIDENCE,SCITUATE,BRANDY BROOK,,O,,EARTH,,12,4,4,3,,3,,7,9,4,0,,,43,LOW,,LOW,RIDEM 2006,,Y,Y,N,N,N,SMALL,N,W,,,,,SCITUATE,0,N,
367,KING POND,,RI04305,,,-71.66201781,41.77366639,PROVIDENCE,SCITUATE,KING BROOK,,O,,"EARTH,MASONRY",100,9,5,5,4,10,3.5,1.75,33,47,19,0,98,19,46,LOW,,LOW,RIDEM 2006,,Y,Y,N,Y,N,SMALL,Y,W,,,,,SCITUATE,0,N,
369,BRADLEY POND,SHARP STREET POND,RI04361,,,-71.67244724,41.65165709,KENT,WEST GREENWICH,NOOSENECK RIVER,,P,,"EARTH,CONCRETE",200,4.5,4,4,2,6,2.5,1.5,6,8,2,1,40,,,LOW,,LOW,RIDEM 2006,,N,Y,N,N,N,SMALL,N,W,,,,,WEST GREENWICH,0,N,
370,BLACK ROCK ICE POND,,RI04046,,,-71.5463257,41.7194977,KENT,COVENTRY,BLACK ROCK BROOK-TRIB,,OR,,EARTH,270,5,4,4,3,3,3,1.5,3,4,2,0,20,,18,LOW,,LOW,GZA 2007 & RIDEM 2008,,Y,Y,N,N,N,SMALL,N,W,,,,,COVENTRY,0,N,
371,PEARCE POND,,RI04047,,,-71.53926,41.72366,KENT,COVENTRY,BLACK ROCK BROOK,1903,O,,"EARTH,MASONRY",100,8,10,10,7,19,7,2.5,12,15,3,0,115,0,50,LOW,,HIGH,GZA 2007,,Y,Y,Y,Y,Y,SMALL,Y,DS,,,,,COVENTRY,0,N,
372,CLARKE'S POND LOWER,,RI04086,,,-71.54847,41.73711,PROVIDENCE,CRANSTON,CLARKE BROOK,,O,,"EARTH,MASONRY",100,10,10,10,8,20,9,2,2,2,0,3,150,0,20,LOW,,LOW,RIDEM 2006 & GZA 2011,,Y,Y,N,Y,N,SMALL,Y,W,,,,,CRANSTON,0,N,
373,CLARKE'S POND UPPER,SEIDEL'S POND,RI04087,,,-71.54727131,41.73688039,PROVIDENCE,CRANSTON,CLARKE BROOK,,O,,"EARTH,MASONRY",190,,10,,,30,8,1.5,3,5,1,0,180,,,LOW,,HIGH,GZA 2004,,Y,Y,Y,Y,Y,SMALL,Y,DS,,,,,CRANSTON,0,N,
375,SALISBURY POND UPPER,,RI04049,,,-71.62998958,41.72046662,KENT,COVENTRY,BOYD BROOK,,,,,,7,,,,10,,2,6,10,2,,100,,,LOW,,LOW,RIDEM 2006,,Y,Y,N,N,N,SMALL,,W,,,,,COVENTRY,0,N,
376,SALISBURY POND LOWER,,RI04050,,,-71.63020319,41.71735383,KENT,COVENTRY,BOYD BROOK,,O,,"EARTH,MASONRY",210,11,,,,19,,2.5,8,13,2,,240,,,LOW,,LOW,RIDEM 2006,,Y,Y,N,N,N,SMALL,,W,,,,,COVENTRY,0,N,
377,HAVENS POND,,RI04051,,,-71.67276759,41.71489334,KENT,COVENTRY,MCCUSTER BROOK,,O,,"MASONRY,EARTH",,8,,,,,,,3,4,1,0,,,,LOW,,LOW,RIDEM 2006,,Y,Y,N,N,N,SMALL,,W,,,,,COVENTRY,0.5,N,
378,MCCUSTER POND LOWER,,RI04052,,,-71.68342595,41.69455719,KENT,COVENTRY,MCCUSTER BROOK,,O,,EARTH,320,7,4,,,,3,,8,12,4,0,,,,LOW,,LOW,RIDEM 2006,,Y,Y,N,N,N,SMALL,N,W,,,,,COVENTRY,0,N,
379,MCCUSTER POND UPPER,,RI04053,,,-71.6856842,41.69277954,KENT,COVENTRY,MCCUSTER BROOK,,O,,"MASONRY,EARTH",170,8,4,,,2,3,,5,8,2,,35,,,LOW,,LOW,RIDEM 2006,,Y,Y,N,N,N,SMALL,N,W,,,,,COVENTRY,0,N,
380,OLNEY-MATHEWSON MILL POND,,RI04054,,,-71.6809158,41.71860888,KENT,COVENTRY,PINE SWAMP BROOK,,,,,200,7,5,,,40,3,2,7,12,2,6,400,,,LOW,,LOW,RIDEM 2006,,Y,Y,N,N,N,SMALL,N,W,,,,,COVENTRY,1,N,
381,SUCKER BROOK BRIDGE POND,,RI04166,,,-71.66965488,41.9260521,PROVIDENCE,GLOCESTER,SUCKER BROOK,,O,,"EARTH,CONCRETE",160,13,12.6,16,4,10,4,2,9,15,3,3,242,38,351,LOW,,SIGNIFICANT,GZA MAP 2008,,Y,Y,Y,Y,Y,SMALL,Y,DS,,,,,GLOCESTER,0,N,
382,AUSTIN UPPER POND,,RI04132,,,-71.66581731,41.59568025,WASHINGTON,EXETER,ROARING BROOK,,O,,EARTH,213,16,15,15,14,23,14,1,6,8,2,1,80,,,LOW,,LOW,GZA MAP 2008 & RIDEM 9/10/2012 DEED RESTRICT(HIGH),HIGH HAZ BEFORE DEED RESTRICT,Y,Y,Y,Y,Y,SMALL,Y,DS,,,,,EXETER,0,N,
383,PECKHAM POND #1,,RI04167,,,-71.69812013,41.86589428,PROVIDENCE,GLOCESTER,PECKHAM BROOK,,O,,"EARTH,MASONRY",280,5.5,6,6,4,1.5,3.5,2,6,10,3,,15,,,LOW,,LOW,RIDEM 2006,,Y,Y,N,Y,N,SMALL,Y,W,,,,,GLOCESTER,0,N,
384,PECKHAM POND #2,,RI04168,,,-71.69472501,41.86668013,PROVIDENCE,GLOCESTER,PECKHAM BROOK,,O,,"EARTH,MASONRY",250,8,4,4,3,27,3,1.5,16,28,8,,,,,LOW,,LOW,RIDEM 2006,,Y,Y,N,Y,N,SMALL,Y,W,,,,,GLOCESTER,0,N,
385,PECKHAM POND #3,,RI04169,,,-71.69309999,41.86770252,PROVIDENCE,GLOCESTER,PECKHAM BROOK,,O,,"EARTH,MASONRY",,10,14,14,12,10,11.5,2,12,20,4,,90,,,LOW,,LOW,RIDEM 2006,,Y,Y,N,Y,N,SMALL,Y,W,,,,,GLOCESTER,0,N,
386,PECKHAM POND #4,,RI04170,,,-71.69300082,41.86917496,PROVIDENCE,GLOCESTER,PECKHAM BROOK,1800,O,,"EARTH,MASONRY",100,5,5,5,3,4,3,3,2,4,1,,,,,LOW,,LOW,RIDEM 2006,,N,Y,N,N,N,SMALL,N,W,,,,,GLOCESTER,0,N,
387,PECKHAM POND #5,,RI04171,,,-71.69194795,41.87186812,PROVIDENCE,GLOCESTER,PECKHAM BROOK-TRIB,,,,,,,5,5,4,,,,,,2,,,,,LOW,,LOW,RIDEM 2006,,UNK,Y,N,N,N,SMALL,N,W,,,,,GLOCESTER,0,N,
388,CASS PARK MIDDLE,,RI04379,,,-71.48828122,42.00478746,PROVIDENCE,WOONSOCKET,IRONMINE BROOK,1946,R,,"EARTH,CONCRETE",400,6,8,11,6,25,6,2,6,8,2,3,250,,260,LOW,,LOW,RIDEM 2006,,Y,Y,N,Y,N,SMALL,Y,W,,,,,WOONSOCKET,0,N,
389,SYLVESTER POND,,RI04380,,,-71.49539943,42.00191878,PROVIDENCE,WOONSOCKET,IRONMINE BROOK,1922,O,,"EARTH,CONCRETE",256,,23.5,29,20,5,19,4,70,81,7,3,113,47,377,LOW,,LOW,RIDEM 2006,,Y,Y,N,Y,N,SMALL,Y,W,,,,,WOONSOCKET,0,N,
390,HANDY POND LOWER,,RI04239,,,-71.47168726,41.95970153,PROVIDENCE,LINCOLN,HANDY BROOK,,O,,EARTH,100,4,12,12,10,12,10,1.7,8,10,2,1,90,0,125,LOW,,LOW,RIDEM 2006,,Y,Y,N,Y,N,SMALL,Y,W,,,,,LINCOLN,0,N,
391,HANDY POND UPPER,,RI04240,,,-71.47239682,41.95870205,PROVIDENCE,LINCOLN,HANDY BROOK,,O,,"EARTH,CONCRETE",300,9,12,12,9,15,9,1.25,45,50,8,1,75,0,120,LOW,,HIGH,GZA 2007,,Y,Y,Y,Y,Y,SMALL,Y,DS,,,,,LINCOLN,0,N,
392,FACTORY MUTUAL RESEARCH CTR LOWER POND,CAMP SHEPARD LOWER POND,RI04172,,,-71.78203,41.88718,PROVIDENCE,GLOCESTER,SHADY OAK BROOK,1948,O,,EARTH,300,20,24,25,20,20,20,6,75,125,9,2,800,5,750,LOW,,LOW,RIDEM 2006,,Y,Y,N,Y,N,SMALL,Y,W,,,,,GLOCESTER,0,N,
393,BLACKSTONE,TUPPERWARE,RI83001,,,-71.553587,42.015349,,NORTH SMITHFIELD,BLACKSTONE RIVER,,H,,,210,,12,0,,200,,,58,0,12,261,0,,,LOW,,LOW,RIDEM 2006,,Y,Y,N,N,N,,N,W,FERC,,,,NORTH SMITHFIELD,,N,
395,LAWTON VALLEY RESERVOIR,,RI02701,,,-71.28055575,41.56572341,NEWPORT,PORTSMOUTH,LAWTON VALLEY BROOK,1943,S,Y,"EARTH,CONCRETE",2630,,39,48,33,40,33,6,1260,1764,1260,3,2000,60,1517,SIGNIFICANT,ACOE-1980,HIGH,GZA 2004,,Y,Y,Y,Y,Y,MEDIUM,Y,DS,,,,,PORTSMOUTH,0,N,
396,NONQUIT POND,,RI03301,,,-71.19700621,41.55345918,NEWPORT,TIVERTON,BORDEN BROOK,1943,S,Y,"ROCKFILL,EARTH",200,9,8,8,7,93,7,3.5,1730,1950,178,6,1826,77,792,LOW,,SIGNIFICANT,GZA MAP 2008,,Y,Y,Y,Y,Y,MEDIUM,Y,DS,,,,,TIVERTON,1,N,
397,NEW POND,,RI04174,,,-71.65686801,41.90949629,PROVIDENCE,GLOCESTER,SPRING GROVE BROOK-TRIB,,O,,EARTH,450,6,8,8,5,6,5,1.5,6,16,4,,35,,,LOW,,LOW,RIDEM 2006,,Y,Y,N,Y,N,SMALL,Y,W,,,,,GLOCESTER,0,N,
398,O'REILLY POND,,RI04175,,,-71.7108612,41.88175966,PROVIDENCE,GLOCESTER,SAUNDERS BROOK-TRIB,,O,,EARTH,300,10,4,4,2,12,2.5,,5,7,3,,,,,LOW,,LOW,RIDEM 2006,,Y,Y,N,N,N,SMALL,N,W,,,,,GLOCESTER,0,N,
400,GRINNEL'S SAWMILL POND,,RI04133,,,-71.58937836,41.54186249,WASHINGTON,EXETER,LOCKE BROOK,,O,,EARTH,50,7.5,8,8,6,,6,2,3,4,1,2,,0,300,LOW,,LOW,RIDEM 2006,,Y,Y,N,Y,N,SMALL,Y,W,,,,,EXETER,0,N,
401,LAKE WASHINGTON,CRANBERRY BOG POND,RI01311,,,-71.75922396,41.91394039,PROVIDENCE,GLOCESTER,MARY BROWN BROOK,1930,R,,"GRAVITY,EARTH",30,6,6,6,5,5,5,1,75,85,41,0,17,50,50,LOW,,HIGH,GZA MAP 2008,,Y,Y,Y,Y,Y,SMALL,Y,DS,,,,,GLOCESTER,0,N,
402,ARCADIA MILL LOWER,,RI04583,,,-71.69545,41.55513,WASHINGTON,HOPKINTON,ROARING BROOK,,,,,0,4,,0,,,,,0,0,0,0,0,,,LOW,,LOW,RIDEM 2006,,UNK,Y,N,N,N,,N,W,,,,,,,N,
403,GREENWICH BLEACHERY POND,,RI04105,,,-71.46006012,41.65254595,KENT,EAST GREENWICH,MASKERCHUGG RIVER,,O,,"EARTH,MASONRY",350,,18,18,16,75,16,1.5,48,60,6,4,480,0,460,SIGNIFICANT,ACOE-1996,LOW,GZA 2004,,Y,Y,N,Y,N,SMALL,Y,W,,,,,EAST GREENWICH,0,N,
404,CENTRAL POND,,RI04114,,,-71.34238,41.84215,PROVIDENCE,EAST PROVIDENCE,TEN MILE RIVER,1934,,,,,,,,,,,,,,,,,,,LOW,,LOW,RIDEM 2006,,UNK,Y,N,N,N,SMALL,,W,,,,,EAST PROVIDENCE,0,N,
405,HUNTS MILL POND,,RI04115,,,-71.34550482,41.82791139,PROVIDENCE,EAST PROVIDENCE,TEN MILE RIVER,1883,,,,,12,,,,,,,,,3,,,,,LOW,,LOW,RIDEM 2006,,Y,Y,N,N,N,SMALL,,W,,,,,EAST PROVIDENCE,0,N,
406,OMEGA POND,,RI01001,,,-71.36876679,41.83885956,PROVIDENCE,EAST PROVIDENCE,TEN MILE RIVER,1918,R,,"MASONRY,GRAVITY,EARTH",200,,18,20,15,112,13,5,252,280,35,50,4380,0,2300,LOW,,LOW,RIDEM 2006,,Y,Y,N,Y,N,SMALL,Y,CRMC,,,,,EAST PROVIDENCE,0,N,
407,JAMES V TURNER RESERVOIR,EAST PROVIDENCE WATER WORKS,RI01002,,D01 EAST DIKE(LOW HAZ 12/31/16 PLOVER),-71.34188076,41.83319855,PROVIDENCE,EAST PROVIDENCE,TEN MILE RIVER,1934,R,,"EARTH,GRAVITY,CONCRETE",820,,22,60,22,200,17,5,1300,3100,275,48,8300,270,1872,HIGH,ACOE-1981,HIGH,ACOE 1981 & GZA UMAP 2008,EAST DIKE LOW HAZARD,Y,Y,Y,Y,Y,MEDIUM,Y,DS,,,,,EAST PROVIDENCE,1,N,
408,BRIDLEWOOD POND,,RI04328,,,-71.4589767,41.91031268,PROVIDENCE,LINCOLN,MOSHASSUCK RIVER-TRIB,,R,,"EARTH,CONCRETE",200,7.5,7,5,4,1.75,4,1,10,12,5,,,,,LOW,,HIGH,GZA 2007,,Y,Y,Y,Y,Y,SMALL,Y,DS,,,,,LINCOLN,0,N,
409,STATE STREET POND,,RI04329,,,-71.26657868,41.67212675,BRISTOL,BRISTOL,UNNAMED STREAM,1988,C,,"EARTH,CONCRETE",,10,8,8,6,,6,1.5,5,7,1,0,,,,LOW,,SIGNIFICANT,GZA 2007,,Y,Y,Y,Y,Y,SMALL,Y,DS,,,,,BRISTOL,0,N,
410,STANDARD OIL POND,,RI04116,,,-71.33003231,41.78339768,PROVIDENCE,EAST PROVIDENCE,RUNNINS RIVER,,,,,,,,,,,,,,,6,,,,,LOW,,LOW,RIDEM 2006,,UNK,Y,N,N,N,SMALL,,CRMC,,,,,EAST PROVIDENCE,2,N,
414,THOMPSON POND,,RI04176,,,-71.60905452,41.92016603,PROVIDENCE,GLOCESTER,TARKILN BROOK-TRIB,,P,,EARTH,70,3.5,3,3,2,15,2.5,0.5,20,25,10,0,,,,LOW,,LOW,RIDEM 2006,,Y,Y,N,Y,N,SMALL,Y,W,,,,,GLOCESTER,0,N,
416,FLY & FISH CLUB,,RI04584,,,-71.57325,41.9789,PROVIDENCE,NORTH SMITHFIELD,TROUT BROOK,,,,,0,7.5,,0,,,,,0,0,0,0,0,,,LOW,,LOW,RIDEM 2006,,Y,Y,N,N,N,,,W,,,,,,,N,
417,MINGOLA POND,,RI04263,,,-71.5623322,41.96139909,PROVIDENCE,NORTH SMITHFIELD,WOONASQUATUCKET RIVER,1860,O,,"EARTH,MASONRY",140,8,8,9,6,4,5.5,2.5,7,8,4,1,91,0,128,LOW,,LOW,RIDEM 2006,,Y,Y,N,Y,N,SMALL,Y,W,,,,,NORTH SMITHFIELD,0,N,
418,CESARIO POND,PRIMROSE POND UPPER,RI04264,,,-71.55845645,41.95897674,PROVIDENCE,NORTH SMITHFIELD,WOONASQUATUCKET RIVER,,O,,EARTH,300,5.5,8,9,6,10,5.5,2,30,38,8,1,98,6,232,LOW,,LOW,RIDEM 2006,,Y,Y,N,Y,N,SMALL,Y,W,,,,,NORTH SMITHFIELD,0,N,
422,MEMORIAL PARK POND,,RI04225,,,-71.5081253,41.82764436,PROVIDENCE,JOHNSTON,POCASSET RIVER,,O,,"EARTH,MASONRY",250,8,7.5,12,4,20,4.5,3,7,11,3,3,397,23,374,LOW,,LOW,GZA 2007 & RIDEM 2008,,Y,Y,N,Y,N,SMALL,Y,W,,,,,JOHNSTON,0,N,
423,BURLINGAME RESERVATION,,RI04029,,,-71.7094853,41.4072112,WASHINGTON,CHARLESTOWN,POQUIANT BROOK-TRIB,1949,FR,,"EARTH,MASONRY",240,,10,10,9,20,8.5,1.6,2,4,1,0,99,25,100,LOW,,LOW,RIDEM 2006,,Y,Y,N,Y,N,SMALL,Y,W,,,,,CHARLESTOWN,0,N,
424,BLOCK ISLAND ROD & GUN CLUB POND,MILL TAIL POND,RI02201,,,-71.56372834,41.17082977,WASHINGTON,NEW SHOREHAM,MILL TAIL BROOK,1950,R,,"ROCKFILL,EARTH",140,14,14,14,7,10,7,2,55,75,16,1,612,13,563,LOW,,SIGNIFICANT,GZA 2008,,Y,Y,Y,Y,Y,SMALL,Y,DS,,,,,NEW SHOREHAM,0,N,Y
425,WAKEFIELD POND,MASLAND POND,RI04335,,,-71.50142673,41.43733978,WASHINGTON,SOUTH KINGSTOWN,SAUGATUCKET RIVER,,O,,"EARTH,MASONRY",100,8.5,8.5,9,5,90,6,2.5,20,35,6,16,2060,,805,LOW,,HIGH,GZA MAP 2008,,Y,Y,Y,Y,Y,SMALL,Y,DS,,,,,SOUTH KINGSTOWN,0,N,
426,PEACE DALE POND,SAUGATUCKET POND,RI03201,,,-71.49524684,41.45241166,WASHINGTON,SOUTH KINGSTOWN,SAUGATUCKET RIVER,1847,O,,"ROCKFILL,EARTH",200,,14,16,14,60,8,2,270,307,30,11,590,275,850,SIGNIFICANT,,HIGH,GZA 2004,,Y,Y,Y,Y,Y,SMALL,Y,DS,,,,,SOUTH KINGSTOWN,1,N,
427,THORNLEY FARM POND,,RI04098,,,-71.38259129,41.99798588,PROVIDENCE,CUMBERLAND,ABBOTT RUN-TRIB,1948,,,,250,,6.5,,,12,5.5,1,1,2,1,0,30,2,29,LOW,,LOW,RIDEM 2006,,Y,Y,N,Y,N,SMALL,Y,W,,,,,CUMBERLAND,0,N,
428,COMSTOCK FARM POND,,RI04312,,,-71.56069178,41.90419007,PROVIDENCE,SMITHFIELD,WOONASQUATUCKET RIVER-TRIB,1950,P,,EARTH,290,7,8,9,7,35,7,0.5,2,3,1,0,33,1,32,LOW,,LOW,RIDEM 2006,,Y,Y,N,Y,N,SMALL,Y,W,,,,,SMITHFIELD,0,N,
429,KNIBB FARM POND,,RI04017,,,-71.72277068,41.94387821,PROVIDENCE,BURRILLVILLE,PASCOAG RIVER-TRIB,1950,,,,200,,8,,,15,7,0.5,1,1,1,,14,,,LOW,,LOW,RIDEM 2006,,Y,Y,N,Y,N,SMALL,Y,W,,,,,BURRILLVILLE,0,N,
430,COTTRELL FARM POND,,RI04204,,,-71.78565215,41.43796158,WASHINGTON,HOPKINTON,ASHAWAY RIVER-TRIB,1950,P,,EARTH,370,11,11,11,9,12,9,0.8,3,4,1,0,25,,24,LOW,,LOW,RIDEM 2006,,Y,Y,N,Y,N,SMALL,Y,W,,,,,HOPKINTON,0,N,
431,VALLEY COUNTRY CLUB POND,,RI04344,,,-71.50637054,41.70338057,KENT,WARWICK,HARDIG BROOK-TRIB,1973,R,,EARTH,200,7,9.2,9,7,16,7,1.2,2,3,0,0,50,23,73,LOW,,LOW,RIDEM 2006,,Y,Y,N,Y,N,SMALL,Y,W,,,,,WARWICK,0,N,
432,GALE FARM POND UPPER,SEN. GALE UPPER POND,RI04106,,,-71.47932436,41.65644835,KENT,EAST GREENWICH,MASKERCHUGG RIVER-WEST BRANCH,1950,P,,EARTH,175,7,10.5,10,8,14,8.5,1.5,15,21,4,0,68,11,57,LOW,,SIGNIFICANT,GZA MAP 2008,,Y,Y,Y,Y,Y,SMALL,Y,DS,,,,,EAST GREENWICH,0,N,
433,ANDERSON FARM POND,,RI04055,,,-71.63484959,41.67021559,KENT,COVENTRY,BEAR BROOK-TRIB,1951,P,,EARTH,220,2,9,,,45,6,1,3,4,1,0,117,,117,LOW,,LOW,RIDEM 2006,,Y,Y,N,Y,N,SMALL,Y,W,,,,,COVENTRY,0,N,
434,DAVIS FARM POND,,RI04177,,,-71.66060641,41.90016555,PROVIDENCE,GLOCESTER,SPRING GROVE BROOK-TRIB,1951,P,,EARTH,390,5,10,10,8,60,7.5,0.5,1,2,0,0,52,,52,LOW,,LOW,RIDEM 2006,,Y,Y,N,Y,N,SMALL,Y,W,,,,,GLOCESTER,0,N,
435,CONNETTI FARM POND,,RI04311,,,-71.56890106,41.89636231,PROVIDENCE,SMITHFIELD,STILLWATER RIVER-TRIB,1951,P,,EARTH,140,,6,6,4,10,4,0.7,,,,,16,,16,LOW,,LOW,RIDEM 2006,,Y,Y,N,Y,N,SMALL,Y,W,,,,,SMITHFIELD,0,N,
438,HIRSCH FARM POND,,RI04272,,,-71.23679353,41.52991487,NEWPORT,PORTSMOUTH,UNNAMED STREAM,1946,P,,EARTH,200,,12.5,14,9,28,9.2,1.8,3,4,1,0,178,6,178,LOW,,LOW,RIDEM 2006,,Y,Y,N,Y,N,SMALL,Y,W,,,,,PORTSMOUTH,0,N,
439,MAYO FARM POND,,RI04251,,,-71.46132666,41.50987242,WASHINGTON,NORTH KINGSTOWN,PETTAQUAMSCUTT RIVER-TRIB,1949,P,,EARTH,280,4,9,9,7,35,7,0.8,4,5,1,0,66,4,65,LOW,,LOW,RIDEM 2006,,Y,Y,N,Y,N,SMALL,Y,W,,,,,NORTH KINGSTOWN,0,N,
440,HOXIE FARM POND,,RI04205,,,-71.7509613,41.479084,WASHINGTON,HOPKINTON,CANONCHET BROOK-TRIB,1951,P,,EARTH,390,8,5,7,2,30,2,1,21,25,4,0,110,6,97,LOW,,SIGNIFICANT,GZA MAP 2008,,Y,Y,Y,Y,Y,SMALL,Y,DS,,,,,HOPKINTON,0,N,
441,MCLEOD FARM POND,,RI04030,,,-71.62411497,41.43211364,WASHINGTON,CHARLESTOWN,PASQUISET BROOK-TRIB,1951,P,,EARTH,235,,5,5,4,12,3,1,3,4,1,0,32,9,30,LOW,,LOW,RIDEM 2006,,N,Y,N,N,N,SMALL,N,W,,,,,CHARLESTOWN,0,N,
443,MANCHESTER POND,SKY POND,RI04343,,,-71.23940273,41.72062302,BRISTOL,WARREN,KICKAMUIT RIVER-TRIB,1949,P,,EARTH,200,,8,8,6,17,6,1,2,3,0,0,45,,44,LOW,,LOW,RIDEM 2006,,Y,Y,N,Y,N,SMALL,Y,CRMC,,,,,WARREN,0,N,
444,SILVER SPRING LAKE,,RI02301,,,-71.46931462,41.5380516,WASHINGTON,NORTH KINGSTOWN,MATTATUXET RIVER,1885,FR,,"EARTH,MASONRY,CONCRETE",154,12,12,12,10,40,10,2.2,108,126,18,2,429,200,400,LOW,,HIGH,GZA MAP 2008 & RIDEM 2008 (RIDEM 2007-SIG),,Y,Y,Y,Y,Y,SMALL,Y,DS,,,,,NORTH KINGSTOWN,0,N,
446,BUCKLIN POINT,,RI04117,,,-71.36568445,41.85192487,PROVIDENCE,EAST PROVIDENCE,SEEKONK RIVER-TRIB,1950,,,,150,,18.5,20,16,20,15.5,4,7,10,1,0,85,,,LOW,,HIGH,GZA MAP 2008,,Y,Y,Y,Y,Y,SMALL,Y,DS; CRMC,,,,,EAST PROVIDENCE,0,N,
447,CONGDON FARM POND,,RI04334,,,-71.59761045,41.47550965,WASHINGTON,SOUTH KINGSTOWN,USQUEPAUG RIVER,1952,P,,EARTH,240,,4.5,4,3,52,3,0.5,2,3,2,0,50,13,49,LOW,,LOW,RIDEM 2006,,N,Y,N,N,N,SMALL,N,W,,,,,SOUTH KINGSTOWN,0,N,
448,WARWICK SPORTSMEN'S ASSOC. POND,,RI04134,,,-71.58420561,41.5455818,WASHINGTON,EXETER,QUEEN RIVER-TRIB,1953,R,,EARTH,275,6.5,8,8,5,60,5,2,23,37,7,1,446,45,443,LOW,,LOW,RIDEM 2006,,Y,Y,N,Y,N,SMALL,Y,W,,,,,EXETER,0,N,Y
449,KENYON FARM POND,,RI04333,,,-71.58393857,41.38094329,WASHINGTON,SOUTH KINGSTOWN,UNNAMED STREAM,1953,P,,EARTH,170,,6.2,6,5,28,4.8,1,4,5,1,0,74,5,70,LOW,,LOW,RIDEM 2006,,Y,Y,N,Y,N,SMALL,Y,CRMC,,,,,SOUTH KINGSTOWN,0,N,
450,KEITH FARM POND,,RI04346,,,-71.49571225,41.68780516,KENT,WARWICK,HARDIG BROOK-TRIB,1953,P,,EARTH,160,8,12,12,10,30,10,1,5,6,1,0,79,7,79,LOW,,LOW,RIDEM 2006,,Y,Y,N,Y,N,SMALL,Y,W,,,,,WARWICK,0,N,
451,CONNER FARM POND,,RI04310,,,-71.56044612,41.90793178,PROVIDENCE,SMITHFIELD,WOONASQUATUCKET RIVER-TRIB,1954,P,,EARTH,350,,9.7,12,6,30,6.5,2.2,8,11,2,0,266,32,277,LOW,,LOW,RIDEM 2006,,Y,Y,N,Y,N,SMALL,Y,W,,,,,SMITHFIELD,0,N,
453,MANTON SPORTSMEN'S CLUB POND,,RI04143,,,-71.78022006,41.80654524,PROVIDENCE,FOSTER,MOOSUP RIVER-TRIB,1953,F,,EARTH,150,,9.5,10,6,24,6,1,2,4,1,0,63,63,43,LOW,,LOW,RIDEM 2006,,Y,Y,N,Y,N,SMALL,Y,W,,,,,FOSTER,0,N,
454,WOODY HILL RESERVOIR,,RI04232,,,-71.73819734,41.3768196,WASHINGTON,WESTERLY,PERRY HEALY BROOK,1954,FR,,EARTH,220,,6.7,7,4,53,4.4,1.3,30,37,12,0,234,22,256,LOW,,LOW,RIDEM 2006,,Y,Y,N,Y,N,SMALL,Y,W,,,,,WESTERLY,0,N,Y
455,BOUCHAR FARM POND,,RI04371,,,-71.51,41.686,KENT,WEST WARWICK,HARDIG BROOK,1951,P,,EARTH,7,4.5,7.4,7,5,5,5,1.4,22,37,10,0,22,133,144,LOW,,SIGNIFICANT,GZA 2007,,Y,Y,Y,Y,Y,SMALL,Y,DS,,,,,WEST WARWICK,0,N,
456,LOCKWOOD FARM POND,,RI04309,,,-71.56707761,41.8875465,PROVIDENCE,SMITHFIELD,STILLWATER RIVER-TRIB,1954,P,,EARTH,320,,7.3,8,5,10,4.8,2,5,6,1,0,70,5,70,LOW,,LOW,RIDEM 2006,,Y,Y,N,Y,N,SMALL,Y,W,,,,,SMITHFIELD,0,N,
457,CLAUSEN FARM POND,,RI04031,,,-71.70566557,41.41027068,WASHINGTON,CHARLESTOWN,POQUIANT BROOK-TRIB,1954,FR,,EARTH,215,,7.5,8,5,23,7,1.3,5,8,2,0,97,16,108,LOW,,LOW,RIDEM 2006,,Y,Y,N,Y,N,SMALL,Y,W,,,,,CHARLESTOWN,0,N,
458,HABEREK FARM POND,,RI04292,,,-71.70347594,41.48864745,WASHINGTON,RICHMOND,DIAMOND BROOK,1954,O,,"EARTH,CONCRETE",200,,7.5,8,5,22,5,1.5,9,13,4,0,105,15,110,LOW,,LOW,RIDEM 2006,,Y,Y,N,Y,N,SMALL,Y,W,,,,,RICHMOND,0,N,
459,KNOWLES FARM POND,,RI04144,,,-71.78932189,41.77310182,PROVIDENCE,FOSTER,QUADUCK BROOK-TRIB,1954,F,,EARTH,250,,8,8,6,30,6,1.5,3,5,2,0,154,52,206,LOW,,LOW,RIDEM 2006,,Y,Y,N,Y,N,SMALL,Y,W,,,,,FOSTER,0,N,
460,GARDNER FARM POND,,RI04266,,,-71.53734593,41.94424819,PROVIDENCE,NORTH SMITHFIELD,WOONASQUATUCKET RIVER,1954,F,,EARTH,65,10,13,13,8,30,8,1.8,7,10,3,0,202,35,237,LOW,,LOW,RIDEM 2006,,Y,Y,N,Y,N,SMALL,Y,W,,,,,NORTH SMITHFIELD,0,N,
461,JUDGE FARM POND,,RI04088,,,-71.50074002,41.78300856,PROVIDENCE,CRANSTON,MESHANTICUT BROOK,1954,,,,180,,11,,,30,6,2,2,4,1,0,227,59,286,LOW,,LOW,RIDEM 2006,,Y,Y,N,Y,N,SMALL,Y,W,,,,,CRANSTON,2,N,
462,CAMP WARWICK POND,OK-WA-NESSET CAMP,RI04347,,,-71.49636073,41.69378279,KENT,WARWICK,HARDIG BROOK-TRIB,1954,R,,EARTH,200,5,15,15,12,12,12.5,1.5,6,8,1,0,55,28,83,LOW,,HIGH,GZA MAP 2008,,Y,Y,Y,Y,Y,SMALL,Y,DS,,,,,WARWICK,0,N,
463,WOONSOCKET SPORTSMEN'S CLUB POND,,RI04018,,,-71.59915923,41.94979096,PROVIDENCE,BURRILLVILLE,TARKILN BROOK-TRIB,1954,R,,EARTH,250,6,7.5,9,5,30,5,1.5,8,12,3,0,145,31,150,LOW,,LOW,RIDEM 2006,,Y,Y,N,Y,N,SMALL,Y,W,,,,,BURRILLVILLE,1,N,
465,MEMORIAL PARK,MOWRY POND,RI04242,,,-71.47785185,41.96518326,PROVIDENCE,LINCOLN,MUSSEY BROOK,,R,,EARTH,700,3.5,9,9,6,26,6.5,1.5,9,10,4,0,126,8,121,LOW,,LOW,RIDEM 2006,,Y,Y,N,Y,N,SMALL,Y,W,,,,,LINCOLN,0,N,
466,DUCK POND,RAWLINGS FARM POND,RI04293,,,-71.66638181,41.49285889,WASHINGTON,RICHMOND,WHITE BROOK,1954,P,,"EARTH,CONCRETE",150,6,8,8,5,22,5,2,5,6,2,0,164,28,203,LOW,,LOW,RIDEM 2006,,Y,Y,N,Y,N,SMALL,Y,W,,,,,RICHMOND,0,N,
467,MILL POND,,RI04390,,,-71.13689,41.57501,NEWPORT,TIVERTON,ADAMSVILLE BROOK,1900,F,,EARTH,300,9.5,5,5,4,18,4,0.9,10,17,1,4,54,10,,LOW,,SIGNIFICANT,GZA MAP 2008,,Y,Y,Y,Y,Y,SMALL,Y,DS,,,,,TIVERTON,1,N,
468,KASELLA FARM POND,,RI04362,,,-71.69699094,41.6452675,KENT,WEST GREENWICH,BREAKHEART BROOK,,P,,EARTH,650,6,4,4,3,30,3,1,30,40,20,1,234,41,275,LOW,,LOW,GZA 2007,,Y,Y,N,Y,N,SMALL,Y,W,,,,,WEST GREENWICH,0,N,
469,FROSTY HOLLOW POND,,RI04135,,,-71.7092056,41.58738707,WASHINGTON,EXETER,BREAKHEART BROOK,,FR,,EARTH,150,8.5,9,9,6,35,5.5,1.5,2,4,1,7,190,9,1060,LOW,,LOW,RIDEM 2006,,Y,Y,N,Y,N,SMALL,Y,W,,,,,EXETER,0,N,
471,WERTZ + VIALL POND,,RI02302,,,-71.44336,41.54097,WASHINGTON,NORTH KINGSTOWN,WANNACHECOMECUT BROOK,1957,R,,"ROCKFILL,EARTH",320,7.5,5.5,8,7,100,4.5,2,66,100,33,1,284,55,339,LOW,,LOW,RIDEM 2006,,Y,Y,N,Y,N,SMALL,Y,W,,,,,NORTH KINGSTOWN,0,N,Y
472,MAPLE LAWN FARM POND,,RI04206,,,-71.78557584,41.44304274,WASHINGTON,HOPKINTON,ASHAWAY RIVER-TRIB,1955,P,,EARTH,380,7,7.2,7,5,23,5,1.2,1,2,1,1,75,6,75,LOW,,LOW,RIDEM 2006,,Y,Y,N,Y,N,SMALL,Y,W,,,,,HOPKINTON,0,N,
473,LOMBARDI FARM POND,,RI04372,,,-71.49939725,41.72473525,KENT,WEST WARWICK,PAWTUXET RIVER-NORTH BRANCH,1956,P,,EARTH,260,6,8.2,8,6,18,6,1,18,24,6,0,60,,60,LOW,,LOW,RIDEM 2006,,Y,Y,N,Y,N,SMALL,Y,W,,,,,WEST WARWICK,0,N,
474,SIMMONS POND,,RI01801,,,-71.14757533,41.53643036,NEWPORT,LITTLE COMPTON,COLD BROOK,1800,FR,,"ROCKFILL,EARTH",180,,7,9,8,100,5.8,1.6,61,90,35,1,550,78,375,LOW,,SIGNIFICANT,GZA MAP 2008,,Y,Y,Y,Y,Y,SMALL,Y,DS,,,,,LITTLE COMPTON,1,N,
475,WANUMETONOMY POND,,RI04246,,,-71.30329128,41.53764342,NEWPORT,MIDDLETOWN,UNNAMED STREAM,1958,P,,EARTH,750,5,6,6,4,42,3.5,1.3,4,5,1,0,162,8,124,LOW,,LOW,RIDEM 2006,,Y,Y,N,Y,N,SMALL,Y,W,,,,,MIDDLETOWN,0,N,
476,CAROLINA TROUT POND,CAROLINA RESERVATION,RI04233,,,-71.7029,41.48437,WASHINGTON,RICHMOND,DIAMOND BROOK,1957,FR,,EARTH,260,,18.5,18,16,62,16,1.5,36,39,4,0,231,66,231,LOW,,LOW,RIDEM 2006,,Y,Y,N,Y,N,SMALL,Y,W,,,,,RICHMOND,0,N,
477,SNOW FARM POND,,RI04056,,,-71.63042,41.66377,KENT,COVENTRY,BEAR BROOK,1956,P,,EARTH,100,,7.8,,,24,5.5,1.3,2,3,1,0,87,9,87,LOW,,LOW,RIDEM 2006,,Y,Y,N,Y,N,SMALL,Y,W,,,,,COVENTRY,0,N,
478,BASSETT FARM POND,,RI04145,,,-71.74571229,41.74866866,PROVIDENCE,FOSTER,WEST MEADOW BROOK-TRIB,1956,F,,EARTH,225,9,9,9,8,20,8,1.2,3,4,1,0,71,10,80,LOW,,LOW,RIDEM 2006,,Y,Y,N,Y,N,SMALL,Y,W,,,,,FOSTER,0,N,
479,WARREN RESERVOIR LOWER,KICKAMUIT LOWER RESERVOIR,RI04342,,,-71.26305,41.72974,BRISTOL,WARREN,KICKAMUIT RIVER,1883,R,N,"EARTH,ROCKFILL,CONCRETE",100,10,8,10,7,50,7,5,78,111,30,5,1956,70,3207,LOW,,SIGNIFICANT,GZA MAP 2008,,Y,Y,Y,Y,Y,SMALL,Y,DS; CRMC,,,,,WARREN,0,N,
480,WARREN RESERVOIR UPPER,,RI03402,,,-71.25926208,41.73991775,BRISTOL,WARREN,KICKAMUIT RIVER,1961,R,N,"EARTH,MASONRY",400,15,14,14,8,100,8,1,106,140,16,5,5733,96,3207,LOW,,SIGNIFICANT,GZA 2007,,Y,Y,Y,Y,Y,SMALL,Y,DS,,,,,WARREN,0,N,
481,WAKEFIELD POND,,RI04131,,,-71.79846192,41.96142958,PROVIDENCE,BURRILLVILLE,BLACKMORE BROOK,,R,,"EARTH,MASONRY",300,10,8,8,5,24,,2.5,175,280,71,1,285,0,150,LOW,,LOW,RIDEM 2006,,Y,Y,N,Y,N,MEDIUM,Y,W,,,,,"THOMPSON, CT.",5,N,
483,SHERER POND,,RI04244,,,-71.20075227,41.51656722,NEWPORT,LITTLE COMPTON,UNNAMED STREAM,1960,P,,EARTH,250,,4.5,4,4,24,3.5,1,2,3,1,0,65,6,65,LOW,,LOW,RIDEM 2006,,N,Y,N,N,N,SMALL,N,CRMC,,,,,LITTLE COMPTON,0,N,
484,GALE FARM POND MIDDLE,,RI04562,,,-71.47912,41.65538,KENT,EAST GREENWICH,MASKERCHUGG RIVER-WEST BRANCH,,,,,0,7,,0,,,,,0,0,0,0,0,,,LOW,,LOW,RIDEM 2006,,Y,Y,N,N,N,,,W,,,,,,,N,
485,"WATSON, HAROLD E,  RESERVOIR",PACHET BROOK POND,RI01802,,,-71.18989559,41.543808,NEWPORT,LITTLE COMPTON,PACHET BROOK,1960,S,Y,"GRAVITY,EARTH",760,,34,38,34,20,34,4.5,4910,7860,375,4,500,350,2550,SIGNIFICANT,ACOE-1979,HIGH,GZA 2004,,Y,Y,Y,Y,Y,MEDIUM,Y,DS,,,,,LITTLE COMPTON,0,N,
486,SOCIAL PARK POND LOWER,,RI04381,,,-71.50914761,42.00947574,PROVIDENCE,WOONSOCKET,MILL RIVER,1961,R,,"EARTH,CONCRETE",200,8,10.5,10,8,12,8,1.5,40,48,7,0,60,10,53,LOW,,LOW,RIDEM 2006,,Y,Y,N,Y,N,SMALL,Y,W,,,,,WOONSOCKET,0,N,
487,GOBEILLE POND,,RI04032,,,-71.69695283,41.42491912,WASHINGTON,CHARLESTOWN,CEDAR SWAMP BROOK,1960,,,,200,9,9.5,,,51,7,1.5,3,4,1,0,252,26,252,LOW,,LOW,RIDEM 2006,,Y,Y,N,Y,N,SMALL,Y,W,,,,,CHARLESTOWN,0,N,
488,SCHOLEFIELD POND,,RI04108,,,-71.51468658,41.63205336,KENT,EAST GREENWICH,MOWNEY BROOK,,,,,200,8,5,,,,4,,2,4,2,,80,,,LOW,,LOW,RIDEM 2006,,Y,Y,N,N,N,SMALL,N,W,,,,,EAST GREENWICH,0,N,
489,HARRINGTON FARM POND,,RI04146,,,-71.75889586,41.74858856,PROVIDENCE,FOSTER,MOOSUP RIVER-TRIB,1957,P,,EARTH,150,,10.5,10,8,22,8,1.5,2,4,1,0,106,12,107,LOW,,LOW,RIDEM 2006,,Y,Y,N,Y,N,SMALL,Y,W,,,,,FOSTER,0,N,
490,BARKER FARM POND,,RI04019,,,-71.73760219,41.98072433,PROVIDENCE,BURRILLVILLE,CLEAR RIVER-TRIB,1957,,,,680,,10,,,63,9,1,3,5,1,0,168,18,,LOW,,LOW,RIDEM 2006,,Y,Y,N,Y,N,SMALL,Y,W,,,,,BURRILLVILLE,0,N,
491,WINSOR FARM POND,,RI04267,,,-71.58323667,41.94034192,PROVIDENCE,NORTH SMITHFIELD,RANKIN BROOK,1957,F,,EARTH,160,4.5,6,6,4,65,4,1,4,5,3,0,173,26,173,LOW,,LOW,RIDEM 2006,,Y,Y,N,Y,N,SMALL,Y,W,,,,,NORTH SMITHFIELD,0,N,
492,HANNAH FARM POND,,RI04109,,,-71.48962403,41.64180757,KENT,EAST GREENWICH,FRY BROOK,1957,P,,EARTH,430,6,8.5,8,6,36,6.5,1,8,10,2,0,83,13,83,LOW,,LOW,RIDEM 2006,,Y,Y,N,Y,N,SMALL,Y,W,,,,,EAST GREENWICH,0,N,
493,OLAF FARM POND,,RI04033,,,-71.73073573,41.39418793,WASHINGTON,WESTERLY,CEDAR SWAMP BROOK,1961,,,,230,8,10,,,36,7,1,7,9,3,0,82,28,81,LOW,,LOW,RIDEM 2006,,Y,Y,N,N,N,SMALL,N,W,,,,,CHARLESTOWN,0,N,
494,JAMES FARM POND,,RI04208,,,-71.75951388,41.42679978,WASHINGTON,HOPKINTON,TOMAQUAG BROOK-TRIB,1956,P,,EARTH,210,6,6,6,4,50,4,1,2,2,1,0,132,10,132,LOW,,LOW,RIDEM 2006,,Y,Y,N,Y,N,SMALL,Y,W,,,,,HOPKINTON,0,N,
495,MANNI FARM POND,,RI04057,,,-71.6182098,41.67254638,KENT,COVENTRY,BIG RIVER-TRIB,1957,P,,EARTH,200,6,8,,,42,6,1,9,12,3,0,112,24,112,LOW,,LOW,RIDEM 2006,,Y,Y,N,Y,N,SMALL,Y,W,,,,,COVENTRY,0,N,
496,BUCK HILL POND,,RI00310,,,-71.78859709,41.98976515,PROVIDENCE,BURRILLVILLE,LEESON BROOK,1962,FR,,"GRAVITY,EARTH",500,,13,14,13,30,13,1.7,90,110,90,1,178,26,294,LOW,,LOW,RIDEM 2006,,Y,Y,N,Y,N,SMALL,Y,W,,,,,BURRILLVILLE,0,N,Y
497,BALD HILL NURSERY POND,,RI04252,,,-71.48031617,41.52362825,WASHINGTON,NORTH KINGSTOWN,MATTATUXET RIVER-TRIB,1962,P,,EARTH,290,11,12,12,10,20,10,1,6,7,1,0,53,6,46,LOW,,LOW,RIDEM 2006,,Y,Y,N,Y,N,SMALL,Y,W,,,,,NORTH KINGSTOWN,0,N,
498,HOPKINS FARM POND,,RI04058,,,-71.57142634,41.69487763,KENT,COVENTRY,PAWTUXET RIVER-SOUTH BRANCH,1964,P,,EARTH,370,9,8,,,57,6,1,9,12,3,0,151,22,151,LOW,,SIGNIFICANT,GZA 2007,,Y,Y,Y,Y,Y,SMALL,Y,DS,,,,,COVENTRY,1,N,
499,DURFEE HILL WILDLIFE MARSH #2,,RI04179,,,-71.79575345,41.90188982,PROVIDENCE,GLOCESTER,CADY BROOK,1965,FR,,EARTH,180,7.5,7.5,8,6,21,5.5,1,45,55,16,0,55,8,98,LOW,,SIGNIFICANT,GZA MAP 2008,,Y,Y,Y,Y,Y,SMALL,Y,DS,,,,,GLOCESTER,0,N,Y
500,NYE FARM POND,,RI04059,,,-71.73838044,41.69018938,KENT,COVENTRY,BUCKS HORN BROOK,1965,P,,EARTH,210,12,12,12,10,40,10,1,40,52,12,0,302,116,302,LOW,,LOW,RIDEM 2006,,Y,Y,N,Y,N,SMALL,Y,W,,,,,COVENTRY,0,N,
501,LITTLE ROUNDTOP POND,,RI04020,,,-71.6979141,42.00153353,PROVIDENCE,BURRILLVILLE,ROUNDTOP BROOK,1965,FR,,EARTH,100,11,5.5,6,4,10,3.5,1,18,20,3,0,27,3,38,LOW,,LOW,RIDEM 2006,,Y,Y,N,Y,N,SMALL,Y,W,,,,,BURRILLVILLE,0,N,Y
502,SPENCER FARM POND  #1,,RI04147,,,-71.74958801,41.81758496,PROVIDENCE,FOSTER,PAINE BROOK-TRIB,1965,P,,EARTH,320,,8,8,6,29,5.5,1.5,2,4,1,0,167,30,167,LOW,,LOW,RIDEM 2006,,Y,Y,N,Y,N,SMALL,Y,W,,,,,FOSTER,0,N,
503,RUSACK FARM POND,,RI04060,,,-71.63623048,41.68540573,KENT,COVENTRY,QUIDNICK BROOK-TRIB,1966,P,,EARTH,310,12,11.5,,,32,9,1.5,3,5,1,0,115,16,189,LOW,,LOW,RIDEM 2006,,Y,Y,N,Y,N,SMALL,Y,W,,,,,COVENTRY,2,N,
504,DEXTER FARM POND,,RI04226,,,-71.55164332,41.83803936,PROVIDENCE,JOHNSTON,POCASSET RIVER-TRIB,1966,P,,EARTH,400,11,10.5,10,8,34,8.5,1,4,5,1,0,79,12,79,LOW,,SIGNIFICANT,GZA 2007,,Y,Y,Y,Y,Y,SMALL,Y,DS,,,,,JOHNSTON,0,N,
505,FEDOROWICZ FARM POND,,RI04089,,,-71.53469849,41.74962233,PROVIDENCE,CRANSTON,LIPPITT BROOK,1966,,,,650,,10,,,14,9,1,6,9,3,0,33,6,53,LOW,,LOW,RIDEM 2006,,Y,Y,N,Y,N,SMALL,Y,W,,,,,CRANSTON,0,N,
506,SHIELDS FARM POND,,RI04021,,,-71.74340055,41.945385,PROVIDENCE,BURRILLVILLE,LELAND BROOK-TRIB,1966,,,,,,12,,,28,10,1,7,9,2,0,64,9,58,LOW,,LOW,RIDEM 2006,,Y,Y,N,Y,N,SMALL,Y,W,,,,,BURRILLVILLE,0,N,
507,GORHAM FARM POND,,RI04148,,,-71.72797393,41.78070068,PROVIDENCE,FOSTER,HEMLOCK BROOK,1966,P,,EARTH,425,10,12.8,13,8,25,7.5,1.3,4,6,1,0,95,9,92,LOW,,LOW,GZA 2007,,Y,Y,N,Y,N,SMALL,Y,W,,,,,FOSTER,0,N,Y
508,LABRECQUE FARM POND,,RI04209,,,-71.79066469,41.48305511,WASHINGTON,HOPKINTON,GLADE BROOK-TRIB,1946,P,,EARTH,210,7,7,7,5,10,5,1,1,2,1,0,10,2,10,LOW,,LOW,RIDEM 2006,,Y,Y,N,Y,N,SMALL,Y,W,,,,,HOPKINTON,0,N,
509,CROOKED BROOK POND,,RI04248,,,-71.46661,41.43235,WASHINGTON,NARRAGANSETT,CROOKED BROOK,1966,C,,"EARTH,MASONRY,CONCRETE",240,5,4,5,3,9,3,0.5,2,2,1,1,28,1,27,LOW,,LOW,RIDEM 2006,,N,Y,N,N,N,SMALL,N,W,,,,,NARRAGANSETT,0,N,
510,MARSELLA FARM POND,,RI04090,,,-71.49695586,41.74628449,PROVIDENCE,CRANSTON,MESHANTICUT BROOK-TRIB,1972,P,,EARTH,430,11,10.7,10,8,20,8.5,1.2,4,5,1,0.04,64,18,78,LOW,,LOW,GZA UMAP 2008 & RIDEM 2006,,Y,Y,N,Y,N,SMALL,Y,W,,,,,CRANSTON,0,N,
511,PECK FARM POND,,RI04306,,,-71.6402435,41.76291277,PROVIDENCE,SCITUATE,WILBUR HOLLOW BROOK-TRIB,1967,R,,EARTH,540,9,9,10,8,12,8,1,16,18,4,0,16,6,30,LOW,,LOW,RIDEM 2006,,Y,Y,N,Y,N,SMALL,Y,W,,,,,SCITUATE,0,N,
512,BLACK HUT POND,,RI04022,,,-71.65139772,41.98921966,PROVIDENCE,BURRILLVILLE,BRANCH RIVER-TRIB,1968,FR,,EARTH,270,,11.2,12,10,20,9.5,1.2,11,16,4,0,65,10,65,LOW,,LOW,RIDEM 2006,,Y,Y,N,Y,N,SMALL,Y,W,,,,,BURRILLVILLE,0,N,
513,CARR POND,GILBERT STUART POND,RI02303,,,-71.44455717,41.52027893,WASHINGTON,NORTH KINGSTOWN,MATTATUXET RIVER,1800,R,,"ROCKFILL,EARTH",60,9.5,9,10,8,30,8,1.5,135,190,54,4,165,25,340,LOW,,HIGH,GZA MAP 2008 & RIDEM 2008 (RIDEM 2007-SIG),,Y,Y,Y,Y,Y,SMALL,Y,DS,,,,,NORTH KINGSTOWN,0,N,
514,LAKE ALDERSGATE,,RI04180,,,-71.66243747,41.87895205,PROVIDENCE,GLOCESTER,MOSQUITOHAWK BROOK-TRIB,,R,,EARTH,200,,6,6,4,4,4,1.5,66,80,19,0,35,0,6,LOW,,SIGNIFICANT,GZA 2007,,Y,Y,Y,Y,Y,SMALL,Y,DS,,,,,GLOCESTER,0,N,
515,LAS BRISAS PARK POND,,RI04110,,,-71.46500399,41.65873339,KENT,EAST GREENWICH,MASKERCHUGG RIVER,1969,R,,EARTH,380,7,8.2,8,4,20,3.5,2.4,4,6,1,3,280,16,200,LOW,,LOW,RIDEM 2006,,Y,Y,N,Y,N,SMALL,Y,W,,,,,EAST GREENWICH,0,N,
516,HAWKINS FARM POND,,RI04149,,,-71.67645267,41.75116729,PROVIDENCE,FOSTER,WILBUR HOLLOW BROOK-TRIB,1969,P,,EARTH,430,7.5,9,9,7,15,7,1,2,3,0,0,34,10,34,LOW,,LOW,RIDEM 2006,,Y,Y,N,Y,N,SMALL,Y,W,,,,,FOSTER,0,N,
517,LUTHER FARM POND,,RI04061,,,-71.74543762,41.72098541,KENT,COVENTRY,MOOSUP RIVER-TRIB,1969,P,,EARTH,230,7.5,8.7,,,18,7,0.6,27,33,11,0,19,6,19,LOW,,LOW,RIDEM 2006,,Y,Y,N,Y,N,SMALL,Y,W,,,,,COVENTRY,1,N,
518,SPENCER FARM POND  #2,,RI04150,,,-71.71611791,41.82384493,PROVIDENCE,FOSTER,PONAGANSET RIVER-TRIB,1969,P,,EARTH,390,8,9.5,10,7,40,7,1.5,18,25,5,0,145,13,145,LOW,,LOW,RIDEM 2006,,Y,Y,N,Y,N,SMALL,Y,W,,,,,FOSTER,0,N,
519,R.I. FISH & GAME PROTECTION ASSOC.,,RI04363,,,-71.68113713,41.64533234,KENT,WEST GREENWICH,NOOSENECK RIVER,1969,F,,"EARTH,CONCRETE",240,6.5,7.2,7,5,35,5.2,1,2,2,1,0,35,30,65,LOW,,LOW,RIDEM 2006,,Y,Y,N,Y,N,SMALL,Y,W,,,,,WEST GREENWICH,0,N,
520,ADLER'S FARM POND #1,,RI04308,,,-71.57373806,41.89809038,PROVIDENCE,SMITHFIELD,STILLWATER RIVER-TRIB,1970,P,,EARTH,390,,17,17,15,10,15,1,4,5,1,0,27,7,18,LOW,,LOW,RIDEM 2006,,Y,Y,N,Y,N,SMALL,Y,W,,,,,SMITHFIELD,0,N,
521,WILD LIFE MARSH,,RI04332,,,-71.5229645,41.46107102,WASHINGTON,SOUTH KINGSTOWN,ROCKY BROOK,1971,FR,,EARTH,380,7.5,7.2,7,5,56,5.2,1,12,16,4,0,123,23,123,LOW,,LOW,RIDEM 2006,,Y,Y,N,Y,N,SMALL,Y,W,,,,,SOUTH KINGSTOWN,0,N,
522,HEBERT FARM POND,,RI04151,,,-71.70831592,41.73029467,PROVIDENCE,FOSTER,TURKEY MEADOW BROOK,1971,P,,EARTH,140,,11,12,8,20,8,2,8,11,2,1,194,,194,LOW,,LOW,RIDEM 2006,,Y,Y,N,Y,N,SMALL,Y,W,,,,,FOSTER,0,N,
523,STAMP FARM POND,,RI04227,,,-71.53820802,41.86302567,PROVIDENCE,JOHNSTON,REAPER BROOK,1972,P,,EARTH,200,,8,8,6,18,6,1,4,5,1,0,43,5,42,LOW,,LOW,RIDEM 2006,,Y,Y,N,Y,N,SMALL,Y,W,,,,,JOHNSTON,0,N,
524,LAFERRIER FARM POND,,RI04023,,,-71.68880468,41.95883561,PROVIDENCE,BURRILLVILLE,CLEAR RIVER-TRIB,1971,,,,210,12.5,13,,,1,11,1,2,3,1,0,56,62,118,LOW,,LOW,RIDEM 2006,,Y,Y,N,Y,N,SMALL,Y,W,,,,,BURRILLVILLE,0,N,
525,HEFLER FARM POND,BROWNING POND,RI04331,,,-71.50299072,41.45475768,WASHINGTON,SOUTH KINGSTOWN,ROCKY BROOK,1972,P,,"EARTH,MASONRY",170,11,11,8,6,32,9,2,5,6,2,2,105,36,159,LOW,,HIGH,GZA MAP 2008,,Y,Y,Y,Y,Y,SMALL,Y,DS,,,,,SOUTH KINGSTOWN,0,N,
526,"GORHAM, N. FARM POND",RI NONAME #1,RI01202,,,-71.76010892,41.74003221,PROVIDENCE,FOSTER,MOOSUP RIVER-TRIB,1973,P,,"GRAVITY,EARTH",560,16,16,17,14,70,13,3,101,150,14,1,217,45,249,LOW,,SIGNIFICANT,GZA 2007,,Y,Y,Y,Y,Y,SMALL,Y,DS,,,,,FOSTER,0,N,Y
527,METCALF WILDLIFE MARSH,RI NONAME  #2,RI01106,,,-71.61003,41.55725,WASHINGTON,EXETER,LOCKE BROOK,1963,R,,"ROCKFILL,EARTH",970,18,11,18,15,40,9,2.5,280,400,70,2,340,30,420,LOW,,HIGH,GZA MAP 2008,,Y,Y,Y,Y,Y,SMALL,Y,DS,,,,,EXETER,0,N,Y
528,LONGRIDGE WILDLIFE MARSH #2,,RI04062,,,-71.64225763,41.68341447,KENT,COVENTRY,QUIDNICK BROOK-TRIB,1956,F,,EARTH,175,10,10.6,,,25,8,1.6,4,6,1,0,131,9,131,LOW,,LOW,RIDEM 2006,,Y,Y,N,Y,N,SMALL,Y,W,,,,,COVENTRY,2,N,
529,LONGRIDGE WILDLIFE MARSH #1,,RI04091,,,-71.6403503,41.68334581,KENT,COVENTRY,QUIDNICK BROOK-TRIB,1956,F,,EARTH,255,6,8.7,9,6,27,6,1.6,12,21,6,0,149,27,149,LOW,,LOW,RIDEM 2006,,Y,Y,N,Y,N,SMALL,Y,W,,,,,COVENTRY,2,N,
530,SILLMAN WILDLIFE MARSH,,RI04210,,,-71.75844577,41.50937272,WASHINGTON,HOPKINTON,BLUE POND BROOK-TRIB,1959,F,,EARTH,250,7,10,10,8,40,8,1,4,5,2,0,90,5,88,LOW,,LOW,RIDEM 2006,,Y,Y,N,Y,N,SMALL,Y,W,,,,,HOPKINTON,0,N,
531,GREAT SWAMP GOOSE MARSH,,RI03202,,,-71.59535984,41.44849775,WASHINGTON,SOUTH KINGSTOWN,PAWCATUCK RIVER,1960,FR,,"ROCKFILL,EARTH",7200,8,8,8,7,30,7,0.5,570,770,190,0,298,45,403,LOW,,LOW,RIDEM 2006,,Y,Y,N,N,N,SMALL,N,W,,,,,SOUTH KINGSTOWN,0,N,Y
